stop_id,stop_name,stop_desc,stop_lat,stop_lon,stop_street,stop_city,stop_region,stop_postcode,stop_country,zone_id
1,"South Deerfield Center",,  42.477036, -72.607452,,,,,,
10,"Silver Lane",,  42.454792, -72.567802,,,,,,
100,"Haydenville Center OB",,  42.374321, -72.701836,,,,,,
1000,"PLAINFIELD / WASON",,  42.123714, -72.617439,,,,,,
10006,"Mass Mutual",,  42.018105, -72.584846,,,,,,
1001,"BAY / ASTER",,  42.123970, -72.559937,,,,,,
1002,"SPRINGFIELD / DERBY DINGLE",,  42.123703, -72.603920,,,,,,
1003,"CAREW / VAN HORN",,  42.123634, -72.586594,,,,,,
1004,"MAIN / FACULTY",,  42.124981, -72.431145,,,,,,
1005,"LIBERTY / CLEVELAND",,  42.123615, -72.584259,,,,,,
1006,"SPRINGFIELD / DERBY DINGLE",,  42.123825, -72.603607,,,,,,
1007,"3300 Main Street",,  42.123165, -72.609741,,,,,,
1008,"Carew/Van Horn(opposite)",,  42.123489, -72.586601,,,,,,
1009,"BAY / ASTER",,  42.123642, -72.560097,,,,,,
101,"Haydenville IB",,  42.374207, -72.701851,,,,,,
1011,"SPRINGFIELD / ATWATER",,  42.122726, -72.604607,,,,,,
1012,"STATE / LOIS",,  42.123245, -72.542137,,,,,,
1013,"LIBERTY / CLEVELAND",,  42.122932, -72.584343,,,,,,
1014,"Main/Noble",,  42.123070, -72.609528,,,,,,
1015,"STATE / TILTON",,  42.123272, -72.541771,,,,,,
1017,"PLAINFIELD / DEMOND",,  42.122379, -72.616730,,,,,,
1018,"ELM / LOWER GRANDVIEW",,  42.121983, -72.627419,,,,,,
1019,"Westfield Center",,  42.120819, -72.747124,,,,,,
102,"Amherst Glass (Out)",,  42.376186, -72.501266,,,,,,
1020,"PARKER / SUNRISE",,  42.123226, -72.497467,,,,,,
1021,"SPRINGFIELD / ATWATER",,  42.122242, -72.604736,,,,,,
1022,"Carew/Armory",,  42.122349, -72.588051,,,,,,
1023,"CAREW / ARMORY",,  42.122192, -72.588448,,,,,,
1024,"PLAINFIELD / LAUREL",,  42.121960, -72.616608,,,,,,
1025,"Westfield Center",,  42.120533, -72.746552,,,,,,
1026,"MAIN / MECHANIC",,  42.120464, -72.745438,,,,,,
1027,"COURT / WASHINGTON",,  42.120308, -72.752785,,,,,,
1028,"STATE / IVANHOE",,  42.122269, -72.543739,,,,,,
1029,"STATE / IVANHOE",,  42.122356, -72.543365,,,,,,
103,"Jones Library (Out)",,  42.375854, -72.521240,,,,,,
1030,"PARKER / SUNRISE",,  42.122608, -72.497505,,,,,,
1031,"LIBERTY / PHOENIX",,  42.121742, -72.584175,,,,,,
1032,"ELM / DINGLE",,  42.121429, -72.627335,,,,,,
1033,"COURT / BATES",,  42.119778, -72.756706,,,,,,
1034,"RAMP / COURT",,  42.119934, -72.749878,,,,,,
1035,"BAY / EDGEWOOD",,  42.121758, -72.561790,,,,,,
1036,"BAY / EDGEWOOD",,  42.121815, -72.561600,,,,,,
1037,"INDEPENDENCE HOUSE PARKING LOT / INDEPEN",,  42.121693, -72.549339,,,,,,
1038,"PARKER / BREWSTER",,  42.122185, -72.497772,,,,,,
1039,"PLAINFIELD / BRIGHTWOOD",,  42.121078, -72.616005,,,,,,
104,"Gray Street (In)",,  42.375919, -72.511971,,,,,,
1040,"STATE / EDGEMONT",,  42.121658, -72.544487,,,,,,
1041,"MAIN / US HWY 20",,  42.119667, -72.743279,,,,,,
1042,"Carew/Nye",,  42.121227, -72.590012,,,,,,
1043,"Carew/Parkside",,  42.121113, -72.590530,,,,,,
1044,"COURT / CHESTNUT",,  42.119339, -72.759171,,,,,,
1046,"COURT / MILL",,  42.119209, -72.759285,,,,,,
1047,"SPRINGFIELD / MAIN",,  42.122303, -72.431801,,,,,,
1049,"ELM / LOWER GRANDVIEW",,  42.120354, -72.627495,,,,,,
105,"Churchill Street",,  42.375877, -72.516556,,,,,,
1050,"SPRINGFIELD / MAIN",,  42.122223, -72.431961,,,,,,
1051,"CHESTNUT / BAY STATE MEDICAL CENTER DRIV",,  42.120537, -72.605240,,,,,,
1052,"PLAINFIELD / ABBE",,  42.120346, -72.615738,,,,,,
1053,"BAY STATE MEDICAL CENTER DRIVE / CHESTNU",,  42.120548, -72.605087,,,,,,
1054,"STATE / HILLMONT",,  42.121159, -72.544838,,,,,,
1055,"MAIN / SPRINGFIELD",,  42.122059, -72.431396,,,,,,
1056,"MAIN / MEADOW",,  42.119106, -72.740166,,,,,,
1058,"PARKER / MALLOWHILL",,  42.121307, -72.497894,,,,,,
1059,"BAY STATE MEDICAL CENTER DRIVE / CHESTNU",,  42.120197, -72.603432,,,,,,
106,"Gray Street (Out)",,  42.375820, -72.511925,,,,,,
1061,"Kindred Hospital",,  42.120678, -72.545479,,,,,,
1062,"PLAINFIELD / ABBE",,  42.120335, -72.615608,,,,,,
1063,"CAREW / MELHA",,  42.120235, -72.592484,,,,,,
1064,"CAREW / MELHA",,  42.120110, -72.592468,,,,,,
1065,"BAY / OAK GROVE",,  42.120064, -72.563423,,,,,,
1066,"Main/Cumberland",,  42.119900, -72.608200,,,,,,
1067,"ELM / LOWER GRANDVIEW",,  42.120033, -72.627380,,,,,,
1068,"Main/Cumberland(opposite)",,  42.119621, -72.608238,,,,,,
1069,"MAIN / NOBLE",,  42.118225, -72.736946,,,,,,
107,"Lincoln Avenue (Out)",,  42.375687, -72.523842,,,,,,
1070,"BAY / OAK GROVE",,  42.120285, -72.563103,,,,,,
1072,"SPRINGFIELD / SPRINGFIELD",,  42.120899, -72.453125,,,,,,
1073,"SPRINGFIELD / STONY HILL",,  42.120770, -72.453873,,,,,,
1074,"OAK GROVE / BAY",,  42.119865, -72.562965,,,,,,
1075,"STATE / CLARENCE",,  42.119957, -72.545883,,,,,,
1076,"SPRINGFIELD / CHAPIN",,  42.120651, -72.456215,,,,,,
1077,"CHESTNUT / WAVERLY",,  42.119293, -72.604576,,,,,,
1078,"PARKER / BURNS",,  42.120255, -72.498375,,,,,,
1079,"STATE / BLUNT PARK",,  42.119663, -72.546326,,,,,,
108,"Amherst Crossing (In)",,  42.375767, -72.507088,,,,,,
1080,"ELM / LARONE",,  42.118683, -72.627663,,,,,,
1081,"CHESTNUT / PRATT",,  42.118965, -72.604050,,,,,,
1083,"PLAINFIELD / CLAYTON",,  42.118759, -72.614876,,,,,,
1084,"BLUNT PARK / STATE",,  42.119415, -72.548218,,,,,,
1086,"STONY HILL / SPRINGFIELD",,  42.120125, -72.454437,,,,,,
1088,"PRINCETON / VASSAR",,  42.119095, -72.569641,,,,,,
1089,"ELM / LARONE",,  42.118488, -72.627556,,,,,,
109,"Amherst Crossing (Out)",,  42.375698, -72.507401,,,,,,
1091,"PLAINFIELD / CLAYTON",,  42.118671, -72.614723,,,,,,
1092,"SAINT JAMES / PRINCETON",,  42.118977, -72.570793,,,,,,
1093,"Main/Portland",,  42.118587, -72.607811,,,,,,
1094,"CAMBRIDGE / BAY",,  42.118965, -72.563705,,,,,,
1095,"PRINCETON / YALE",,  42.118874, -72.567360,,,,,,
1096,"BAY / DAWES",,  42.118923, -72.564568,,,,,,
1097,"Main/Waverly",,  42.118484, -72.607605,,,,,,
1098,"PRINCETON / YALE",,  42.118820, -72.567757,,,,,,
1099,"SAINT JAMES / WELLESLEY",,  42.118748, -72.570969,,,,,,
11,"Cliffside",,  42.452225, -72.563591,,,,,,
110,"Amherst Town Hall",,  42.375603, -72.519341,,,,,,
1100,"PARKER / VINCENT",,  42.119263, -72.498550,,,,,,
11003,"HOLYOKE HIGH",,  42.200729, -72.623245,,,,,,
11008,"Dean Tech",,  42.177475, -72.631111,,,,,,
1101,"STATE / UNNAMED STREET",,  42.118675, -72.546951,,,,,,
11011,"Jarvis and Easthampton",,  42.219898, -72.639587,,,,,,
1102,"PRINCETON / BAY",,  42.119244, -72.564613,,,,,,
1103,"Carew/Algonquin(opposite)",,  42.118141, -72.594902,,,,,,
1104,"CHESTNUT / CHAPIN",,  42.117950, -72.603104,,,,,,
1105,"Carew/Algonquin",,  42.118011, -72.594772,,,,,,
1106,"BAY / CLIFFORD",,  42.118366, -72.564987,,,,,,
1107,"Putnam High School",,  42.118488, -72.547417,,,,,,
1108,"BAY / CLIFFORD",,  42.118298, -72.565079,,,,,,
1109,"CHESTNUT / CALHOUN",,  42.117947, -72.602913,,,,,,
111,"Heatherstone Road (Out)",,  42.375839, -72.481194,,,,,,
1110,"SANDERSON / SANDERSON",,  42.117794, -72.614563,,,,,,
11101,"Heatherstone Road (In)",,  42.376102, -72.481049,,,,,,
1111,"PRINCETON / BAY",,  42.118252, -72.565773,,,,,,
11111,"Silver/ Main (Flag stop - signal driver)",,  42.261559, -72.572136,,,,,,
11113,"Grandby / East (Flag stop - signal driver)",,  42.239834, -72.555153,,,,,,
11114,"Granby / East (Flag stop - signal driver)",,  42.239388, -72.556091,,,,,,
11115,"Cherry and Homestead",,  42.201092, -72.642357,,,,,,
11116,"Homestead and Cherry",,  42.201000, -72.642220,,,,,,
11117,"Main and Sargent(Holyoke Tripper)",,  42.198364, -72.610077,,,,,,
1112,"SANDERSON / WHITING",,  42.117683, -72.616287,,,,,,
11121,"Lower Westfield/Whiting Farms(Holyoke Tripper)",,  42.174358, -72.640381,,,,,,
11123,"High and Sargent (Holyoke Tripper)",,  42.200298, -72.614128,,,,,,
11124,"Main and Sargent(Holyoke Tripper)",,  42.197456, -72.609680,,,,,,
1113,"SANDERSON / WHITING",,  42.117554, -72.616203,,,,,,
11130,"Country Estates(Agawam)",,  42.048573, -72.634872,,,,,,
1114,"BAY / PRINCETON",,  42.117836, -72.565628,,,,,,
11140,"Stony Hill and Boston Rd(IB)",,  42.148785, -72.478386,,,,,,
1115,"Main/Medford",,  42.117603, -72.607384,,,,,,
1116,"OAK GROVE / ACORN",,  42.118031, -72.561714,,,,,,
1117,"SANDERSON / DIVISION",,  42.117405, -72.617737,,,,,,
1119,"ELM / SHEAFFER",,  42.116978, -72.627724,,,,,,
112,"Amherst Common (N)",,  42.374569, -72.519760,,,,,,
1120,"SANDERSON / DIVISION",,  42.117283, -72.617798,,,,,,
1121,"Mass Mutual",,  42.117859, -72.545601,,,,,,
1123,"CAMBRIDGE / BAY",,  42.117565, -72.562782,,,,,,
1124,"SAINT JAMES / WORTHINGTON",,  42.117207, -72.571266,,,,,,
1125,"WILBRAHAM / BELLWOOD",,  42.117702, -72.516884,,,,,,
1126,"STATE / UNNAMED STREET",,  42.117405, -72.548309,,,,,,
1127,"Main / Hooker St.",,  42.116840, -72.607056,,,,,,
1128,"Main / E. Hooker St.",,  42.116798, -72.606880,,,,,,
1129,"WILBRAHAM / PINEVIEW",,  42.117687, -72.514931,,,,,,
113,"Amherst Common (S)",,  42.374485, -72.519897,,,,,,
1130,"ELM / ELDRIDGE",,  42.116631, -72.627403,,,,,,
1131,"WILBRAHAM / GRANGER",,  42.117645, -72.512733,,,,,,
1132,"WILBRAHAM / DENWALL",,  42.117596, -72.514580,,,,,,
1133,"WILBRAHAM / CATALPA",,  42.117619, -72.510544,,,,,,
1134,"WILBRAHAM / JONQUIL",,  42.117546, -72.512367,,,,,,
1135,"Wilbraham and Fenway (Northside)",,  42.117577, -72.507828,,,,,,
1136,"WILBRAHAM / BIRCHLAND",,  42.117542, -72.510818,,,,,,
1137,"Carew/Cass",,  42.116768, -72.595131,,,,,,
1139,"LIBERTY / UNKNOWN",,  42.116756, -72.584747,,,,,,
114,"Amity Place (Out)",,  42.374020, -72.531555,,,,,,
1140,"Wilbraham and Jeffrey (south side)",,  42.117500, -72.508453,,,,,,
1141,"BAY / WELCOME",,  42.116936, -72.566376,,,,,,
1142,"WILBRAHAM / LUMAE",,  42.117523, -72.504356,,,,,,
1143,"CAREW / CASS",,  42.116650, -72.595306,,,,,,
1144,"CHESTNUT / BANCROFT",,  42.116543, -72.601295,,,,,,
1145,"WILBRAHAM / LUMAE",,  42.117416, -72.504433,,,,,,
1147,"Sci Tech High School",,  42.116867, -72.549118,,,,,,
1149,"LIBERTY / GENESEE",,  42.116592, -72.584892,,,,,,
115,"Amherst Glass (In)",,  42.376263, -72.501312,,,,,,
1151,"BAY / BOWLES",,  42.116333, -72.567032,,,,,,
1152,"SANDERSON / DIVISION",,  42.115971, -72.617783,,,,,,
1153,"MAIN / DELMONT",,  42.114647, -72.728745,,,,,,
1154,"MAIN / US HWY 20",,  42.114639, -72.729675,,,,,,
1156,"PARKER / RAMP",,  42.116936, -72.498962,,,,,,
1157,"MAIN / HUNTINGTON",,  42.115856, -72.606590,,,,,,
1158,"CLYDE / SANDERSON",,  42.115776, -72.617592,,,,,,
116,"Amherst College",,  42.372890, -72.518814,,,,,,
1160,"Springfield / Brooklawn(Flag stop - signal driver)",,  42.117035, -72.472298,,,,,,
1161,"Mercy Hospital",,  42.115891, -72.593918,,,,,,
1162,"WILBRAHAM / PARK",,  42.116627, -72.521072,,,,,,
1164,"OAK GROVE / BURR",,  42.116199, -72.560226,,,,,,
1165,"SAINT JAMES / CLARENDON",,  42.116081, -72.571709,,,,,,
1166,"SPRINGFIELD / WILBRAVIEW",,  42.116863, -72.474045,,,,,,
1167,"WILBRAHAM / PARK",,  42.116409, -72.521683,,,,,,
1168,"BAY / DARTMOUTH",,  42.116222, -72.567009,,,,,,
1174,"WILBRAHAM / SPRINGFIELD",,  42.116547, -72.476799,,,,,,
1175,"SAINT JAMES / CLARENDON",,  42.115658, -72.571686,,,,,,
1176,"STATE / BERLIN",,  42.115562, -72.551750,,,,,,
1177,"Duggan Middle School",,  42.116009, -72.525070,,,,,,
1178,"WILBRAHAM / KANE",,  42.116123, -72.500351,,,,,,
1179,"CLYDE / PLAINFIELD",,  42.115173, -72.612320,,,,,,
118,"Colonial Village (In)",,  42.370281, -72.499146,,,,,,
1180,"CAMBRIDGE / BURR",,  42.115639, -72.561516,,,,,,
1181,"CLYDE / PLAINFIELD",,  42.115112, -72.612671,,,,,,
1183,"Duggan Middle School",,  42.115837, -72.525177,,,,,,
1184,"WILBRAHAM / KANE",,  42.115913, -72.500252,,,,,,
1185,"CHESTNUT / HEBRON",,  42.115082, -72.599358,,,,,,
1186,"PARKER / WILBRAHAM",,  42.115826, -72.498665,,,,,,
1187,"MAIN / SHELDON",,  42.114925, -72.606239,,,,,,
1188,"WILBRAHAM / GLENOAK",,  42.116203, -72.478958,,,,,,
1189,"WILBRAHAM / GLENOAK",,  42.116135, -72.479012,,,,,,
119,"Colonial Village (Out)",,  42.370186, -72.499069,,,,,,
1191,"BAY / CLARENDON",,  42.115196, -72.568077,,,,,,
1192,"WILBRAHAM / PINE ACRE",,  42.115955, -72.480568,,,,,,
1193,"Clyde St. (#2)",,  42.114799, -72.615189,,,,,,
1194,"STATE / DEARBORN",,  42.115292, -72.552155,,,,,,
1195,"CLYDE / M",,  42.114624, -72.616425,,,,,,
1197,"CAREW / MASSASOIT",,  42.114819, -72.595810,,,,,,
1198,"WILBRAHAM / PINE ACRE",,  42.115807, -72.481094,,,,,,
1199,"MAIN / WESTFIELD STREET SHOPS DRIVE",,  42.113346, -72.724091,,,,,,
12,"Seven Eleven",,  42.451557, -72.562866,,,,,,
120,"Colonial Village / S East Street (In)",,  42.369362, -72.501648,,,,,,
1200,"MAIN / JEFFERSON",,  42.114517, -72.605919,,,,,,
1201,"STATE / CORTLAND",,  42.114937, -72.553696,,,,,,
1203,"Carew/Massasoit(opposite)",,  42.115162, -72.595604,,,,,,
1204,"WILBRAHAM / PEEKSKILL",,  42.115433, -72.484100,,,,,,
1205,"ELM / KINGS",,  42.113884, -72.625107,,,,,,
1206,"WILBRAHAM / BARRISON",,  42.114937, -72.528015,,,,,,
1207,"STATE / DRESDEN",,  42.114689, -72.553993,,,,,,
1208,"DWIGHT / OSGOOD",,  42.115166, -72.602791,,,,,,
1209,"ELM / WITCH",,  42.113949, -72.625328,,,,,,
121,"Colonial Village / S East Street (Out)",,  42.369293, -72.501717,,,,,,
1210,"WILBRAHAM / BARRISON",,  42.114861, -72.527969,,,,,,
1211,"BAY / BUCKINGHAM",,  42.114220, -72.568954,,,,,,
1212,"PLUMTREE / PURITAN",,  42.115021, -72.502174,,,,,,
1213,"BAY / BUCKINGHAM",,  42.114456, -72.568626,,,,,,
1214,"PLAINFIELD / ORCHARD",,  42.113892, -72.610825,,,,,,
1215,"MAIN / DRIVEWAY",,  42.112774, -72.720421,,,,,,
1216,"WILBRAHAM / DELMORE",,  42.114635, -72.529884,,,,,,
1217,"LINDEN TOWERS DRIVE / STAFFORD",,  42.114025, -72.593140,,,,,,
1219,"WILBRAHAM / ABERDALE",,  42.114964, -72.487350,,,,,,
1220,"PLAINFIELD / ORCHARD",,  42.113747, -72.610840,,,,,,
1221,"State/Maynard",,  42.114277, -72.555733,,,,,,
1222,"Carew/Chestnut",,  42.113903, -72.596519,,,,,,
1224,"WILBRAHAM / MARINE",,  42.114868, -72.487518,,,,,,
1225,"Carew/Chestnut",,  42.113861, -72.596405,,,,,,
1226,"WILBRAHAM / MARINE",,  42.114773, -72.488609,,,,,,
1227,"SAINT JAMES / THOMPSON",,  42.114014, -72.572266,,,,,,
1228,"WILBRAHAM / WALSH",,  42.114346, -72.531013,,,,,,
123,"Amherst Community Health Ctr (Out)",,  42.368740, -72.533485,,,,,,
1230,"WILBRAHAM / CABINET",,  42.114655, -72.489006,,,,,,
1232,"CHESTNUT / SHERRINGTON",,  42.113651, -72.597435,,,,,,
1233,"MAIN / BANCROFT",,  42.113541, -72.605446,,,,,,
1234,"WILBRAHAM / MONTICELLO",,  42.114212, -72.532814,,,,,,
1235,"DWIGHT / HEBRON",,  42.113567, -72.601318,,,,,,
1236,"WILBRAHAM / MONTICELLO",,  42.114120, -72.532867,,,,,,
1237,"WILBRAHAM / SENATOR",,  42.114452, -72.490807,,,,,,
1238,"STATE / HOMER",,  42.113926, -72.556419,,,,,,
1239,"Westfield Shops",,  42.112194, -72.723969,,,,,,
124,"Amherst Community Health Ctr (In)",,  42.368645, -72.533394,,,,,,
1240,"WILBRAHAM / TRUMAN",,  42.114216, -72.535828,,,,,,
1241,"SAINT JAMES / THOMPSON",,  42.113564, -72.572304,,,,,,
1242,"WILBRAHAM / TRUMAN",,  42.113972, -72.534515,,,,,,
1243,"BRADLEY / FREDETTE",,  42.113998, -72.523972,,,,,,
1244,"WILBRAHAM / MARCHIONESS",,  42.114269, -72.492088,,,,,,
1246,"WILBRAHAM / UNNAMED STREET",,  42.113777, -72.538467,,,,,,
1247,"WILBRAHAM / MARCHIONESS",,  42.114147, -72.492668,,,,,,
1248,"BRADLEY / FREDETTE",,  42.113827, -72.523819,,,,,,
1249,"WILBRAHAM / UNNAMED STREET",,  42.113682, -72.538391,,,,,,
125,"Big Y",,  42.367916, -72.534561,,,,,,
1252,"WILBRAHAM / OLD ACRE",,  42.113930, -72.493393,,,,,,
1253,"American International College",,  42.113338, -72.558754,,,,,,
1254,"SPRINGFIELD / MAIN",,  42.111671, -72.711815,,,,,,
1255,"WILBRAHAM / ALDEN",,  42.113194, -72.542747,,,,,,
1256,"SAINT JAMES / FLORIDA",,  42.113083, -72.572739,,,,,,
1257,"PLAINFIELD / LOWELL",,  42.112705, -72.610100,,,,,,
1258,"SPRINGFIELD / US HWY 20",,  42.111687, -72.711578,,,,,,
1259,"WILBRAHAM / NORFOLK",,  42.113117, -72.550323,,,,,,
1260,"PLAINFIELD / LOWELL",,  42.112556, -72.609909,,,,,,
1261,"WILBRAHAM / CARLISLE",,  42.113144, -72.549171,,,,,,
1262,"PLUMTREE / SHERWOOD",,  42.113544, -72.503304,,,,,,
1263,"American International College",,  42.113014, -72.559273,,,,,,
1264,"WILBRAHAM / NORFOLK",,  42.112988, -72.550674,,,,,,
1265,"WILBRAHAM / ALDEN",,  42.113056, -72.543068,,,,,,
1266,"BAY / WESTMINSTER",,  42.112782, -72.570267,,,,,,
1267,"MAIN / OSGOOD",,  42.112404, -72.604492,,,,,,
1268,"WORTHINGTON / FEDERAL",,  42.112690, -72.580132,,,,,,
1269,"BAY / WESTMINSTER",,  42.112934, -72.570030,,,,,,
127,"Stop and Shop",,  42.365696, -72.538383,,,,,,
1270,"Carew/Dwight (1)",,  42.112438, -72.598488,,,,,,
1271,"WILBRAHAM / SUFFOLK",,  42.112831, -72.552315,,,,,,
1272,"SAINT JAMES / FLORIDA",,  42.112595, -72.572914,,,,,,
1273,"MLK Community Center (Inbound)",,  42.112698, -72.560699,,,,,,
1274,"Carew/Dwight (3)",,  42.112305, -72.598495,,,,,,
1275,"WILBRAHAM / LAKESIDE",,  42.112816, -72.544632,,,,,,
1276,"WILBRAHAM / BENTON",,  42.112789, -72.546188,,,,,,
1277,"ELM / ROCHELLE",,  42.112087, -72.625023,,,,,,
1278,"WILBRAHAM / SUFFOLK",,  42.112720, -72.552551,,,,,,
1279,"STATE / ANDREW",,  42.112690, -72.560776,,,,,,
128,"Greenleaves Drive",,  42.365360, -72.535492,,,,,,
1280,"DWIGHT / GROSVENOR",,  42.112198, -72.599747,,,,,,
1281,"MLK Community Cener",,  42.112553, -72.560699,,,,,,
1282,"Carew/Dwight (2)",,  42.112148, -72.598892,,,,,,
1283,"WILBRAHAM / REED",,  42.112469, -72.554329,,,,,,
1284,"WILBRAHAM / ROCHELLE",,  42.112457, -72.555038,,,,,,
1285,"ELM / ROCHELLE",,  42.111706, -72.624916,,,,,,
1286,"MAIN / MORGAN",,  42.111549, -72.603271,,,,,,
1287,"CHESTNUT / STAFFORD",,  42.112053, -72.595757,,,,,,
1288,"WORTHINGTON / KIBBE",,  42.111923, -72.583076,,,,,,
1289,"FEDERAL / WORTHINGTON",,  42.112011, -72.580048,,,,,,
1290,"Carew/Dwight (2)",,  42.111267, -72.598625,,,,,,
1291,"Western New England Hospital",,  42.110798, -72.701324,,,,,,
1292,"WILBRAHAM / ALBEMARLE",,  42.112194, -72.556335,,,,,,
1293,"FEDERAL / PEARL",,  42.111908, -72.579865,,,,,,
1294,"BRADLEY / FREDETTE",,  42.112316, -72.522339,,,,,,
1295,"BRADLEY / VALLEY",,  42.112385, -72.522621,,,,,,
1296,"Main/Church",,  42.110855, -72.602394,,,,,,
1297,"AIC (Wilbraham Rd)",,  42.111977, -72.558449,,,,,,
1298,"MAIN / MORGAN",,  42.111496, -72.603355,,,,,,
1299,"State / Hayden",,  42.111866, -72.562950,,,,,,
13,"Bagdon Farm",,  42.446461, -72.554710,,,,,,
130,"Russell/Campus Plaza (Pride)",,  42.363682, -72.538857,,,,,,
1300,"American International College",,  42.111889, -72.558502,,,,,,
1301,"Carew/Dwight (1)",,  42.111443, -72.599663,,,,,,
1302,"MLK Community Center (Wilbraham Rd)",,  42.111729, -72.560204,,,,,,
1303,"SAINT JAMES / RIPLEY",,  42.111614, -72.573654,,,,,,
1304,"MAGAZINE / BOWDOIN",,  42.111572, -72.576096,,,,,,
1305,"PLUMTREE / HAZEN",,  42.112183, -72.504234,,,,,,
1306,"WORTHINGTON / SACKETT",,  42.112072, -72.582359,,,,,,
1307,"MAGAZINE / LINCOLN",,  42.111561, -72.576225,,,,,,
1308,"SAINT JAMES / RIPLEY",,  42.111431, -72.573647,,,,,,
1309,"Mason Square",,  42.111347, -72.564972,,,,,,
1310,"WILBRAHAM / RUTLAND",,  42.111465, -72.561310,,,,,,
1311,"WILBRAHAM / COLTON",,  42.111393, -72.562767,,,,,,
1312,"BAY / PLEASANT",,  42.111282, -72.571793,,,,,,
1313,"BRADLEY / KEDDY",,  42.111679, -72.521912,,,,,,
1315,"WILBRAHAM / COLTON",,  42.111210, -72.563232,,,,,,
1316,"Plainfield St. across from John",,  42.110680, -72.603455,,,,,,
1317,"WEST / RIVERSIDE",,  42.110573, -72.611305,,,,,,
1318,"Springfield Technical Community College (Pearl St)",,  42.110725, -72.581085,,,,,,
1319,"PLAINFIELD / JOHN",,  42.110565, -72.603508,,,,,,
132,"Memorial Drive (Out)",,  42.362564, -72.520828,,,,,,
1320,"WORTHINGTON / SACKETT",,  42.110668, -72.584618,,,,,,
1321,"WORTHINGTON / SACKETT",,  42.110546, -72.584930,,,,,,
1322,"WEST / US HWY 20",,  42.110355, -72.611267,,,,,,
1323,"Mason Square (Inbound)",,  42.110683, -72.567245,,,,,,
1324,"Springfield Tech Community College",,  42.110676, -72.580818,,,,,,
1325,"MAGAZINE / LINCOLN",,  42.110535, -72.574989,,,,,,
1326,"MAGAZINE / LINCOLN",,  42.110725, -72.575310,,,,,,
1327,"Mason Square",,  42.110474, -72.567101,,,,,,
1328,"STATE/THOMPSON",,  42.110229, -72.569801,,,,,,
1329,"ELM / FIELD",,  42.109825, -72.624825,,,,,,
133,"Memorial Drive (In)",,  42.362606, -72.520706,,,,,,
1330,"BAY / SAINT JAMES",,  42.110195, -72.573586,,,,,,
1331,"BAY / SAINT JAMES",,  42.110130, -72.573837,,,,,,
1332,"STATE/HANCOCK",,  42.110081, -72.569511,,,,,,
1333,"Salvation Army (Pearl St.)",,  42.109928, -72.582809,,,,,,
1334,"Main/Carew",,  42.109741, -72.600998,,,,,,
1335,"Main / St. George (1)",,  42.109776, -72.601440,,,,,,
1336,"ELM / ELMWOOD",,  42.109531, -72.624336,,,,,,
1338,"HANCOCK / STATE",,  42.109623, -72.568840,,,,,,
1339,"State/Stebbins",,  42.109722, -72.571655,,,,,,
134,"Rolling Green (Out)",,  42.362854, -72.488739,,,,,,
1340,"STATE / ORLEANS",,  42.109589, -72.573349,,,,,,
1341,"STATE / ORLEANS",,  42.109467, -72.573120,,,,,,
1342,"BRADLEY / SHIRLEY",,  42.109871, -72.521492,,,,,,
1343,"STATE / OAK",,  42.109138, -72.574883,,,,,,
1344,"Salvation Army (Pearl St.)",,  42.109844, -72.582672,,,,,,
1345,"SPRINGFIELD / MOUNTAIN",,  42.107758, -72.703484,,,,,,
1346,"WORTHINGTON / WORTHINGTON",,  42.108921, -72.586670,,,,,,
1348,"PEARL / BYERS",,  42.109436, -72.583885,,,,,,
1349,"BRADLEY / EMERALD",,  42.109352, -72.521278,,,,,,
135,"Rolling Green (In)",,  42.362221, -72.488029,,,,,,
1350,"STATE / STATE",,  42.108860, -72.575447,,,,,,
1351,"HANCOCK / MONROE",,  42.108932, -72.568825,,,,,,
1352,"Westfield Walmart",,  42.107304, -72.707726,,,,,,
1353,"WESTFIELD / US HWY 20",,  42.107456, -72.688698,,,,,,
1354,"WORTHINGTON / SPRING",,  42.108437, -72.587379,,,,,,
1355,"ELM / ELM",,  42.107998, -72.623749,,,,,,
1356,"WESTFIELD / TALCOTT",,  42.107346, -72.687744,,,,,,
1357,"WORTHINGTON / SPRING",,  42.108234, -72.587463,,,,,,
1358,"STATE / WALNUT",,  42.108356, -72.576042,,,,,,
1359,"WESTFORD / MIDDLESEX",,  42.108364, -72.552238,,,,,,
136,"Russell/Russell (Staples)",,  42.361214, -72.543785,,,,,,
1360,"Norfolk/ Westford Circle",,  42.108501, -72.549423,,,,,,
1361,"WESTFORD / MIDDLESEX",,  42.108284, -72.552490,,,,,,
1362,"WESTFIELD / WESTFIELD",,  42.107079, -72.682701,,,,,,
1363,"WESTFORD / ALBEMARLE",,  42.108086, -72.555351,,,,,,
1364,"PLUMTREE / EMBASSY",,  42.108528, -72.506676,,,,,,
1365,"WESTFORD / BRADDOCK",,  42.107971, -72.554657,,,,,,
1366,"WESTFORD / GUNN",,  42.107964, -72.558281,,,,,,
1367,"WESTFIELD / NELSON",,  42.107048, -72.648445,,,,,,
1368,"BRADLEY / CHEROKEE",,  42.108284, -72.521255,,,,,,
1369,"WESTFORD / MASSACHUSETTS",,  42.107925, -72.557053,,,,,,
137,"Russell/Rte 9 (Holiday Inn Express)",,  42.359985, -72.546738,,,,,,
1370,"PEARL / SPRING",,  42.107552, -72.586098,,,,,,
1371,"ELM / US HWY 20",,  42.107216, -72.622696,,,,,,
1372,"HANCOCK / QUINCY",,  42.107689, -72.568459,,,,,,
1373,"BRADLEY / CHEROKEE",,  42.108162, -72.521118,,,,,,
1374,"WESTFIELD / NELSON",,  42.106869, -72.648384,,,,,,
1375,"WESTFORD / MASSACHUSETTS",,  42.107677, -72.557518,,,,,,
1376,"WESTFIELD / WOODMONT",,  42.106834, -72.650505,,,,,,
1377,"WALNUT / CHARTER",,  42.107441, -72.576401,,,,,,
1378,"WESTFIELD / CEDAR",,  42.106808, -72.645424,,,,,,
1379,"WESTFIELD / ROYCE",,  42.106880, -72.623657,,,,,,
138,"Logtown Road (In)",,  42.356838, -72.482407,,,,,,
1380,"ELM / WESTFIELD",,  42.106796, -72.622940,,,,,,
1381,"WALNUT / CHARTER",,  42.107330, -72.576103,,,,,,
1382,"WESTFIELD / WOODMONT",,  42.106571, -72.650429,,,,,,
1383,"WESTFIELD / CEDAR",,  42.106537, -72.644943,,,,,,
1384,"PEARL / SPRING",,  42.107208, -72.586372,,,,,,
1385,"WESTFIELD / SPRINGFIELD",,  42.106380, -72.652702,,,,,,
1386,"WESTFORD / GUNN",,  42.107197, -72.558266,,,,,,
1387,"Commerce High School",,  42.107189, -72.578773,,,,,,
1388,"WESTFIELD / LOCUST",,  42.106239, -72.652763,,,,,,
1389,"WESTFIELD / VAN DEENE",,  42.106293, -72.625511,,,,,,
139,"Logtown Road (Out)",,  42.356487, -72.481956,,,,,,
1390,"PARK / LATHROP",,  42.106476, -72.618958,,,,,,
1391,"MAIN / US HWY 20",,  42.106476, -72.616447,,,,,,
1392,"WESTFIELD / VAN DEENE",,  42.106365, -72.624947,,,,,,
1393,"TINKHAM / MAIN",,  42.107937, -72.436584,,,,,,
1394,"TINKHAM / MAIN",,  42.107899, -72.436485,,,,,,
1395,"WORTHINGTON / CHESTNUT",,  42.106537, -72.589493,,,,,,
1396,"US HWY 20 / PARK AVENUE",,  42.106117, -72.617867,,,,,,
1397,"PLUMTREE / TALBOT",,  42.107277, -72.507515,,,,,,
1398,"WORTHINGTON / CHESTNUT",,  42.106461, -72.589752,,,,,,
1399,"MAIN / BLISS",,  42.106228, -72.615913,,,,,,
14,"Laurenitis Farm Stand (Out)",,  42.442165, -72.551346,,,,,,
140,"Hampshire Mall",,  42.355961, -72.550140,,,,,,
1400,"MIDDLESEX / BRISTOL",,  42.106785, -72.551353,,,,,,
1401,"WALNUT / UNION",,  42.106518, -72.575050,,,,,,
1402,"HANCOCK / TYLER",,  42.106510, -72.568222,,,,,,
1403,"WESTFIELD / MAPLE",,  42.105789, -72.642914,,,,,,
1404,"WESTFIELD / VAN DEENE",,  42.105900, -72.626717,,,,,,
1405,"WALNUT / UNION",,  42.106461, -72.574829,,,,,,
1406,"WESTFIELD / MAPLE",,  42.106136, -72.643295,,,,,,
1407,"WESTFIELD / ALTAMONT",,  42.105644, -72.659836,,,,,,
1408,"WESTFIELD / ELY",,  42.105656, -72.659828,,,,,,
1409,"PARK / US HWY 20",,  42.105949, -72.620049,,,,,,
141,"Valley Medical",,  42.356674, -72.485382,,,,,,
1410,"PLUMTREE / TALBOT",,  42.106934, -72.507645,,,,,,
1411,"WESTFIELD / VAN DEENE",,  42.105824, -72.626648,,,,,,
1412,"WESTFIELD / THOMPSON",,  42.105347, -72.661766,,,,,,
1413,"Verizon Building",,  42.106171, -72.580070,,,,,,
1414,"WESTFIELD / BROOKLINE",,  42.105419, -72.656303,,,,,,
1415,"STATE / WALNUT",,  42.106201, -72.580353,,,,,,
1416,"TAYLOR / DWIGHT",,  42.106209, -72.591400,,,,,,
1417,"WESTFORD / KING",,  42.106331, -72.558235,,,,,,
1418,"WALNUT / OAK",,  42.105663, -72.573792,,,,,,
1419,"HANCOCK / PENDLETON",,  42.105862, -72.568207,,,,,,
142,"Mountain Farms Mall",,  42.355381, -72.552010,,,,,,
1420,"BRIDGE / CHESTNUT",,  42.106030, -72.587914,,,,,,
1421,"KING / WESTFORD",,  42.105900, -72.558372,,,,,,
1422,"KING / NORTHAMPTON",,  42.105888, -72.558983,,,,,,
1423,"WALNUT / OAK",,  42.105747, -72.573761,,,,,,
1424,"KING / WILBRAHAM",,  42.105804, -72.559776,,,,,,
1425,"TINKHAM / MOUNTAINBROOK",,  42.106777, -72.442642,,,,,,
1426,"KING / WILBRAHAM",,  42.105728, -72.559860,,,,,,
1427,"WESTFIELD / SILVER",,  42.104965, -72.641052,,,,,,
1428,"US HWY 20 / PARK",,  42.105118, -72.619675,,,,,,
1429,"KING / LOGAN",,  42.105637, -72.561249,,,,,,
143,"Leeds",,  42.353508, -72.699921,,,,,,
1430,"PEARL / HILLMAN",,  42.105949, -72.587845,,,,,,
1431,"WESTFIELD / LAUREL",,  42.104679, -72.663460,,,,,,
1432,"WESTFIELD / MERCURY",,  42.104900, -72.629829,,,,,,
1433,"WESTFIELD / MEADOWBROOK",,  42.104511, -72.664841,,,,,,
1434,"KING / LOGAN",,  42.105545, -72.561348,,,,,,
1435,"TINKHAM / EVANGELINE",,  42.106548, -72.442947,,,,,,
1436,"WESTFIELD / HILLCREST",,  42.104431, -72.672935,,,,,,
1437,"MAIN / FAIRVIEW",,  42.104839, -72.614090,,,,,,
1438,"WESTFIELD / SILVER",,  42.104668, -72.640717,,,,,,
1439,"WESTFIELD / HATHORNE",,  42.104336, -72.676010,,,,,,
144,"Russell/Russell (The Stables)",,  42.354649, -72.557220,,,,,,
1440,"KING / EASTERN",,  42.105400, -72.563263,,,,,,
1441,"WESTFIELD / OHIO",,  42.104401, -72.669731,,,,,,
1442,"WESTFIELD / MERCURY",,  42.104836, -72.629707,,,,,,
1443,"MAIN / FAIRVIEW",,  42.104889, -72.613930,,,,,,
1444,"WESTFIELD / HATHORNE",,  42.104137, -72.675423,,,,,,
1445,"State/Spring",,  42.105133, -72.582031,,,,,,
1446,"KING / MERRICK",,  42.105255, -72.564537,,,,,,
1447,"WESTFIELD / OHIO",,  42.104210, -72.669662,,,,,,
1448,"WESTFIELD / POPLAR",,  42.104218, -72.666763,,,,,,
1449,"KING / MERRICK",,  42.105160, -72.564568,,,,,,
145,"Mill Street (In)",,  42.354939, -72.520660,,,,,,
1450,"Springfield Bus Terminal",,  42.104843, -72.597015,,,,,,
1451,"KING / NELSON",,  42.104900, -72.567535,,,,,,
1452,"KING / NELSON",,  42.104816, -72.567612,,,,,,
1453,"WESTFIELD / RAMP",,  42.104031, -72.633621,,,,,,
1454,"State/School",,  42.104671, -72.582413,,,,,,
1455,"WALNUT / KING",,  42.104794, -72.572365,,,,,,
1456,"WESTFIELD / PLEASANT",,  42.103725, -72.634331,,,,,,
1457,"DWIGHT / HARRISON",,  42.104088, -72.589050,,,,,,
1458,"WESTFIELD / SUMMIT",,  42.103561, -72.636269,,,,,,
1459,"BRADLEY / PLUMTREE",,  42.104668, -72.519447,,,,,,
146,"Russell/Russell (Whole Foods)",,  42.354675, -72.556938,,,,,,
1460,"PLUMTREE / GLENVALE",,  42.104683, -72.512070,,,,,,
1461,"No longer used  Use stop at Main and Bridge",,  42.103920, -72.593437,,,,,,
1462,"PLUMTREE / GLENVALE",,  42.104649, -72.511726,,,,,,
1463,"MAIN / CHURCH",,  42.103733, -72.612427,,,,,,
1464,"MAIN / CHURCH",,  42.103657, -72.612091,,,,,,
1465,"WESTFIELD / SUMMIT",,  42.103226, -72.636673,,,,,,
1466,"WORTHINGTON / MAIN",,  42.103886, -72.592674,,,,,,
1467,"Main/Worthington",,  42.103676, -72.592628,,,,,,
1468,"PLUMTREE / EVERGREEN",,  42.104286, -72.515465,,,,,,
1469,"BRADLEY / PLUMTREE",,  42.104160, -72.519218,,,,,,
147,"Columbia Drive (In)",,  42.354034, -72.522133,,,,,,
1470,"WALNUT / JAMES",,  42.104362, -72.571838,,,,,,
1471,"PLUMTREE / OLD FARM",,  42.104153, -72.516045,,,,,,
1472,"PLUMTREE / OLD FARM",,  42.104092, -72.517334,,,,,,
1473,"PLUMTREE / OLD FARM",,  42.103996, -72.517487,,,,,,
1474,"MAIN / BRIDGE",,  42.103264, -72.591797,,,,,,
1475,"Main and Harrison",,  42.103210, -72.589523,,,,,,
1476,"MAIN / JAMES",,  42.102840, -72.610970,,,,,,
1477,"MAIN / COTTAGE",,  42.102673, -72.610428,,,,,,
1478,"WALNUT / LEBANON",,  42.103050, -72.569748,,,,,,
1479,"STATE / CHESTNUT",,  42.102825, -72.585014,,,,,,
148,"Old Belchertown Road",,  42.353470, -72.476204,,,,,,
1480,"WALNUT / LEBANON",,  42.102619, -72.569244,,,,,,
1481,"Main/Harrison",,  42.102467, -72.590027,,,,,,
1482,"BRANCH / PLUMTREE",,  42.103092, -72.523178,,,,,,
1484,"MOSLEY / MAIN",,  42.101982, -72.609016,,,,,,
1485,"ALDEN / SHEFFIELD",,  42.102306, -72.560318,,,,,,
1486,"TINKHAM / STONY HILL",,  42.103203, -72.458511,,,,,,
1487,"MAPLE / HIGH",,  42.102016, -72.582474,,,,,,
1488,"MAIN / GEORGE",,  42.101788, -72.608826,,,,,,
1489,"WILBRAHAM / ALDEN",,  42.102295, -72.558899,,,,,,
149,"Old Belchertown Road (Out)",,  42.353374, -72.476250,,,,,,
1490,"BRANCH / TERRACE",,  42.102531, -72.526146,,,,,,
1491,"Alden/Eastern (2)",,  42.102058, -72.562447,,,,,,
1492,"WALNUT / BRIGHAM",,  42.101990, -72.568314,,,,,,
1493,"Alden/Eastern (1)",,  42.101948, -72.563698,,,,,,
1494,"MAPLE / UNION",,  42.101589, -72.581863,,,,,,
1495,"Court Square",,  42.101463, -72.588219,,,,,,
1496,"WALNUT / ALDEN",,  42.101677, -72.567719,,,,,,
1497,"ALDEN / HANCOCK",,  42.101624, -72.566399,,,,,,
1498,"MAPLE / UNION",,  42.101372, -72.581367,,,,,,
1499,"WALNUT / ASHLEY",,  42.101006, -72.566719,,,,,,
15,"Laurenitis Farm Stand (In)",,  42.442162, -72.551491,,,,,,
150,"VA Medical Center",,  42.351288, -72.682175,,,,,,
1500,"MAIN / ALLEN",,  42.100269, -72.605629,,,,,,
1501,"MAIN / ALLEN",,  42.100403, -72.606056,,,,,,
1503,"Main/Stockbridge",,  42.100361, -72.586090,,,,,,
1504,"MAPLE / AVON",,  42.100044, -72.579666,,,,,,
1505,"Main/Howard",,  42.099873, -72.585594,,,,,,
1506,"MAPLE / AVON",,  42.099968, -72.579231,,,,,,
1507,"WALNUT / CROSBY",,  42.099892, -72.565079,,,,,,
1508,"STERNS / CENTRAL",,  42.099739, -72.576324,,,,,,
1509,"RIVER / SPRING",,  42.099197, -72.634338,,,,,,
151,"The Brook (Out)",,  42.351631, -72.525970,,,,,,
1510,"PLUMTREE / GORMAN",,  42.100182, -72.524132,,,,,,
1511,"CENTRAL / STERNS",,  42.099644, -72.576469,,,,,,
1512,"CENTRAL / CEDAR",,  42.099632, -72.575066,,,,,,
1513,"River/King",,  42.098640, -72.635399,,,,,,
1514,"CENTRAL / CEDAR",,  42.099571, -72.574684,,,,,,
1515,"CHAPIN / MAIN",,  42.099152, -72.603859,,,,,,
1516,"MAIN / UNION",,  42.099285, -72.584541,,,,,,
1517,"HICKORY / CONKLIN",,  42.099461, -72.559631,,,,,,
1518,"RIVER / KING",,  42.098568, -72.635742,,,,,,
1519,"TERRACE / PLUMTREE",,  42.099407, -72.526314,,,,,,
152,"The Brook (In)",,  42.351509, -72.526543,,,,,,
1520,"CENTRAL / PINE",,  42.099075, -72.573181,,,,,,
1521,"CENTRAL / PINE",,  42.099148, -72.573280,,,,,,
1522,"WALNUT / HIGH",,  42.098396, -72.632713,,,,,,
1523,"PLUMTREE / TERRACE",,  42.099274, -72.526184,,,,,,
1524,"MAIN / BRIDGE",,  42.098408, -72.602753,,,,,,
1525,"PLUMTREE / CHESTERFIELD",,  42.099125, -72.528656,,,,,,
1526,"PLUMTREE / CHESTERFIELD",,  42.099041, -72.528648,,,,,,
1527,"HICKORY / EASTERN",,  42.098701, -72.561134,,,,,,
1528,"MAIN / BRIDGE",,  42.098442, -72.603043,,,,,,
1529,"MAIN / WILLIAM",,  42.098297, -72.583488,,,,,,
153,"Southpoint",,  42.350418, -72.530266,,,,,,
1530,"MAIN / WILLIAM",,  42.098190, -72.583183,,,,,,
1531,"CENTRAL / BEECH",,  42.098297, -72.570702,,,,,,
1532,"WALNUT / HICKORY",,  42.098263, -72.564018,,,,,,
1533,"PLUMTREE / CHALMERS",,  42.098518, -72.530266,,,,,,
1534,"MAIN / NEW BRIDGE",,  42.097820, -72.602158,,,,,,
1535,"HICKORY / WALNUT",,  42.098171, -72.563248,,,,,,
1536,"PLUMTREE / CHALMERS",,  42.098415, -72.530319,,,,,,
1537,"CENTRAL / SPRUCE",,  42.098000, -72.569450,,,,,,
1538,"CENTRAL / SPRUCE",,  42.098022, -72.569778,,,,,,
1539,"BRIDGE / HIGH",,  42.097218, -72.635323,,,,,,
154,"Mayflower Apts. (In)",,  42.350712, -72.470169,,,,,,
1540,"WALNUT / OTTAWA",,  42.097000, -72.632225,,,,,,
1541,"PLUMTREE / ABBOTT",,  42.097996, -72.531685,,,,,,
1542,"MAIN / MARGARET",,  42.097492, -72.582756,,,,,,
1543,"WALNUT / OTTAWA",,  42.096935, -72.632118,,,,,,
1544,"MEMORIAL / MAIN",,  42.096931, -72.599289,,,,,,
1545,"MAIN / MORRIS",,  42.097069, -72.582214,,,,,,
1546,"1 Stop Plaza",,  42.097149, -72.566589,,,,,,
1547,"RIFLE / ALLEN",,  42.097195, -72.564224,,,,,,
1548,"MEMORIAL / MAIN",,  42.096790, -72.599220,,,,,,
1549,"CENTRAL / HANCOCK",,  42.097111, -72.566612,,,,,,
155,"Shay Street",,  42.350334, -72.519432,,,,,,
1550,"PLUMTREE / GILLETTE",,  42.097195, -72.533875,,,,,,
1551,"CENTRAL / RIFLE",,  42.096863, -72.565521,,,,,,
1552,"MEMORIAL / NEW BRIDGE",,  42.096283, -72.606850,,,,,,
1553,"PLUMTREE / GILLETTE",,  42.096951, -72.534393,,,,,,
1554,"ALLEN / MALDEN",,  42.096626, -72.562027,,,,,,
1555,"ALLEN / MALDEN",,  42.096573, -72.562515,,,,,,
1556,"PLUMTREE / OREGON",,  42.096745, -72.535439,,,,,,
1557,"WALNUT / MAPLE",,  42.095825, -72.631981,,,,,,
1558,"PLUMTREE / OREGON",,  42.096588, -72.535614,,,,,,
1559,"BRIDGE / MAPLE",,  42.095539, -72.633911,,,,,,
156,"Mayflower Apts. (Out)",,  42.350464, -72.470062,,,,,,
1560,"WHITE / REVERE",,  42.095993, -72.560791,,,,,,
1561,"WHITE / REVERE",,  42.096100, -72.560806,,,,,,
1562,"Main/Loring",,  42.095924, -72.581741,,,,,,
1563,"PLUMTREE / WHITTUM",,  42.096302, -72.536720,,,,,,
1564,"PLUMTREE / ROOSEVELT",,  42.096249, -72.537354,,,,,,
1565,"MAIN / ADAMS",,  42.095631, -72.581497,,,,,,
1566,"Riverbend Medical Center",,  42.096260, -72.502983,,,,,,
1567,"Big Y at Allen and Cooley Sts.",,  42.096199, -72.500008,,,,,,
1568,"PLUMTREE / WHEELER",,  42.095848, -72.538673,,,,,,
1569,"PLUMTREE / GRANDVIEW",,  42.095875, -72.538895,,,,,,
157,"The Boulders",,  42.349056, -72.528877,,,,,,
1570,"Wingate",,  42.096066, -72.504501,,,,,,
1571,"Century Plaza",,  42.094975, -72.603439,,,,,,
1572,"PLUMTREE / EDDYWOOD",,  42.095467, -72.540543,,,,,,
1573,"MAPLE / HIGHLAND",,  42.094524, -72.634598,,,,,,
1574,"PLUMTREE / EDDYWOOD",,  42.095394, -72.540520,,,,,,
1575,"Century Plaza Big Y",,  42.094753, -72.604744,,,,,,
1576,"MEMORIAL / LOWELL",,  42.094421, -72.614647,,,,,,
1577,"Bicentennial Hwy. (1)",,  42.095608, -72.508995,,,,,,
1578,"MEMORIAL / LOWELL",,  42.094486, -72.613937,,,,,,
1579,"MAPLE / MOORE",,  42.094181, -72.635086,,,,,,
158,"Wentworth Drive",,  42.347862, -72.512688,,,,,,
1580,"Walnut/Dwight",,  42.094120, -72.631325,,,,,,
1581,"WHITE / GRAND",,  42.094845, -72.559219,,,,,,
1582,"Main/Montpelier",,  42.094448, -72.581100,,,,,,
1583,"PLUMTREE / PILGRIM",,  42.094734, -72.542297,,,,,,
1584,"WHITE / GRAND",,  42.094555, -72.558685,,,,,,
1585,"MAIN / GARDNER",,  42.094296, -72.581177,,,,,,
1586,"MEMORIAL / BOSWORTH",,  42.093956, -72.616074,,,,,,
1587,"MEMORIAL / BOSWORTH",,  42.093884, -72.615822,,,,,,
1588,"Allen/Bicentennial",,  42.094822, -72.510040,,,,,,
1589,"Allen/Bicentennial (inbound)",,  42.094753, -72.509605,,,,,,
159,"RUSSELL / SPRUCE HILL",,  42.347073, -72.572624,,,,,,
1590,"PLUMTREE / MAYFLOWER",,  42.094452, -72.542572,,,,,,
1591,"ALLEN / TALMADGE",,  42.094688, -72.513748,,,,,,
1592,"MAPLE / TOWER",,  42.093208, -72.635956,,,,,,
1593,"Allen/Bridlepath",,  42.094646, -72.514618,,,,,,
1594,"Allen/Wilshire (inbound)",,  42.094315, -72.508263,,,,,,
1595,"MEMORIAL / EAST",,  42.093330, -72.618080,,,,,,
1596,"PLUMTREE / MAYFLOWER",,  42.093987, -72.543457,,,,,,
1597,"ALLEN / WILSHIRE",,  42.094288, -72.508415,,,,,,
1598,"MILL / MAPLE",,  42.093834, -72.571136,,,,,,
1599,"MEMORIAL / EAST",,  42.093224, -72.617981,,,,,,
160,"RUSSELL / SPRUCE HILL",,  42.347115, -72.572372,,,,,,
1600,"Main/Marble",,  42.093075, -72.580650,,,,,,
1601,"WALNUT / WINTHROP",,  42.093025, -72.630928,,,,,,
1602,"MILL / MAPLE",,  42.093620, -72.572090,,,,,,
1603,"ORANGE / PALM",,  42.093674, -72.553703,,,,,,
1604,"ORANGE / PALM",,  42.093716, -72.553909,,,,,,
1605,"MAIN / BROAD",,  42.093369, -72.580872,,,,,,
1606,"EXPOSITION / MEMORIAL",,  42.093040, -72.619308,,,,,,
1607,"PLUMTREE / MAYFLOWER",,  42.093731, -72.543686,,,,,,
1608,"ALLEN / ALBERTA",,  42.093582, -72.552811,,,,,,
1609,"ALLEN / ALBERTA",,  42.093407, -72.551598,,,,,,
161,"RUSSELL / NASHUA",,  42.345749, -72.575462,,,,,,
1610,"ORANGE / CLAREMONT",,  42.093388, -72.555450,,,,,,
1611,"ORANGE / HANCOCK",,  42.093281, -72.568733,,,,,,
1612,"Allen/Allen Park (inbound)",,  42.093788, -72.505890,,,,,,
1613,"WHITE / ORANGE",,  42.093155, -72.556786,,,,,,
1614,"Dickinson and Locust",,  42.093224, -72.569229,,,,,,
1615,"MILL / LOCUST",,  42.093460, -72.569084,,,,,,
1616,"WHITE / ORANGE",,  42.093323, -72.557144,,,,,,
1617,"ORANGE / THAYER",,  42.093319, -72.556412,,,,,,
1618,"MEMORIAL / EXPOSITION",,  42.092674, -72.620407,,,,,,
1619,"ALLEN / ALLEN PARK",,  42.093712, -72.505898,,,,,,
162,"Russell/Pine Hill",,  42.345966, -72.574806,,,,,,
1620,"MEMORIAL / HEYWOOD",,  42.092644, -72.621231,,,,,,
1621,"ORANGE / THAYER",,  42.093246, -72.556419,,,,,,
1622,"SUMNER / BAIRDCREST",,  42.093353, -72.522171,,,,,,
1623,"MILL / RAMP",,  42.092831, -72.574593,,,,,,
1624,"ORANGE / WAREHAM",,  42.092960, -72.558609,,,,,,
1625,"ORANGE / WAREHAM",,  42.092915, -72.558525,,,,,,
1626,"ALLEN / CALIFORNIA",,  42.092979, -72.549339,,,,,,
1627,"LOCUST / DARWELL",,  42.092705, -72.570618,,,,,,
1628,"ORANGE / WIGWAM",,  42.092743, -72.567490,,,,,,
163,"MAIN / STATE HWY 9",,  42.344357, -72.682350,,,,,,
1630,"ORANGE / EARL",,  42.092674, -72.560364,,,,,,
1631,"MAPLE / ORCHARD",,  42.091862, -72.637115,,,,,,
1632,"ORANGE / WIGWAM",,  42.092655, -72.566589,,,,,,
1633,"ALLEN / CORCORAN",,  42.092991, -72.520767,,,,,,
1634,"ALLEN / DELL",,  42.092731, -72.548340,,,,,,
1635,"LOCUST / DARWELL",,  42.092529, -72.571190,,,,,,
1636,"ORANGE / REVERE",,  42.092617, -72.560303,,,,,,
1637,"PLUMTREE / PALMYRA",,  42.092709, -72.545143,,,,,,
1638,"ALLEN / MANDALAY",,  42.092690, -72.547707,,,,,,
1639,"PLUMTREE / PALMYRA",,  42.092823, -72.544907,,,,,,
164,"Warren Wright Road (Out)",,  42.345600, -72.467339,,,,,,
1640,"ORANGE / MALDEN",,  42.092419, -72.561989,,,,,,
1641,"ORANGE / OAKLAND",,  42.092335, -72.562111,,,,,,
1642,"ORANGE / EUCLID",,  42.092255, -72.564865,,,,,,
1643,"MEMORIAL / AVENUE OF THE STATES",,  42.091724, -72.623581,,,,,,
1644,"SUMNER / HUDSON",,  42.092606, -72.524933,,,,,,
1645,"ALLEN / WAYNE",,  42.092377, -72.546097,,,,,,
1646,"ORANGE / EUCLID",,  42.092171, -72.564980,,,,,,
1647,"ALLEN / WAYNE",,  42.092300, -72.546120,,,,,,
1648,"MEMORIAL / CIRCUIT",,  42.091518, -72.624664,,,,,,
1649,"ALLEN / HARBOUR",,  42.092453, -72.522934,,,,,,
165,"Warren Wright Road (In)",,  42.345501, -72.467125,,,,,,
1650,"DICKINSON / WIGWAM",,  42.091980, -72.567993,,,,,,
1651,"DICKINSON / SACHEM",,  42.091846, -72.567749,,,,,,
1652,"Main/Acushnet (opposite)",,  42.091782, -72.580032,,,,,,
1653,"LOCUST / WOODSIDE",,  42.091881, -72.572456,,,,,,
1654,"SUMNER / PINECREST",,  42.092243, -72.526756,,,,,,
1655,"Main/Acushnet",,  42.091709, -72.579727,,,,,,
1656,"MILL / PINE",,  42.091782, -72.575378,,,,,,
1657,"Eastern States Exposition",,  42.091305, -72.624832,,,,,,
1658,"WHITE / DAWSON",,  42.091911, -72.555054,,,,,,
1659,"LOCUST / WOODSIDE",,  42.091709, -72.572548,,,,,,
1660,"SUMNER / EMERSON",,  42.092060, -72.527679,,,,,,
1661,"Five Town Plaza",,  42.093376, -72.500687,,,,,,
1662,"Stop and Shop at Allen and Cooley Sts.",,  42.091278, -72.498932,,,,,,
1663,"ALLEN / MANOR",,  42.091843, -72.525261,,,,,,
1664,"Sumner/Chalmers",,  42.091770, -72.529190,,,,,,
1665,"LOCUST / WOODSIDE",,  42.091339, -72.573502,,,,,,
1666,"MAPLE / OAK HILL",,  42.090649, -72.638016,,,,,,
1667,"LOCUST / WOODSIDE",,  42.091213, -72.573509,,,,,,
1668,"WHITE / MANSFIELD",,  42.091145, -72.554001,,,,,,
1669,"Walnut/Springfield",,  42.090343, -72.629501,,,,,,
167,"Crocker Farm (Out)",,  42.344849, -72.520538,,,,,,
1670,"Mill and Locust (N)",,  42.090672, -72.577217,,,,,,
1671,"Mill and Locust",,  42.090733, -72.577782,,,,,,
1672,"Sumner/Allen",,  42.091125, -72.532974,,,,,,
1673,"WHITE / SCOTT",,  42.090889, -72.553795,,,,,,
1674,"DICKINSON / EUCLID",,  42.090775, -72.566750,,,,,,
1675,"ALLEN / ACCESS",,  42.091068, -72.530251,,,,,,
1676,"DICKINSON / EUCLID",,  42.090672, -72.566353,,,,,,
1677,"WALNUT / SPRINGFIELD",,  42.089836, -72.629120,,,,,,
1678,"SUMNER / GARLAND",,  42.090702, -72.534073,,,,,,
1679,"MAPLE / BEGLEY",,  42.089546, -72.638687,,,,,,
168,"Russell/East (RMV)",,  42.343769, -72.579468,,,,,,
1680,"MAPLE / BEGLEY",,  42.089458, -72.638824,,,,,,
1681,"DICKINSON / HALL",,  42.090157, -72.565102,,,,,,
1682,"Roosevelt/Sumner",,  42.090382, -72.536644,,,,,,
1683,"DICKINSON / HALL",,  42.090076, -72.565247,,,,,,
1684,"WHITE / STRATFORD",,  42.090134, -72.552757,,,,,,
1685,"WHITE / AINSWORTH",,  42.090115, -72.552589,,,,,,
1686,"SUMNER / ELOISE",,  42.090034, -72.537590,,,,,,
1687,"Belmont/Leyfred",,  42.089687, -72.575417,,,,,,
1688,"BELMONT / LEYFRED",,  42.089622, -72.575615,,,,,,
1689,"DICKINSON / OAKLAND",,  42.089699, -72.563286,,,,,,
169,"RUSSELL / EAST",,  42.343132, -72.581429,,,,,,
1690,"SUMNER / EDDYWOOD",,  42.089951, -72.538857,,,,,,
1691,"SUMNER / HOWES",,  42.089706, -72.539322,,,,,,
1692,"FORT PLEASANT / BLAKE HILL",,  42.089386, -72.576813,,,,,,
1693,"MAIN / MAIN",,  42.088806, -72.625778,,,,,,
1694,"sumner/Rencelau",,  42.089546, -72.540916,,,,,,
1695,"BELMONT / WOODSIDE",,  42.089043, -72.573822,,,,,,
1696,"DICKINSON / KENWOOD",,  42.089241, -72.562080,,,,,,
1697,"SUMNER / CASTLE",,  42.089378, -72.541092,,,,,,
1698,"BELMONT / WOODSIDE",,  42.089184, -72.573662,,,,,,
1699,"FORT PLEASANT / BLAKE HILL",,  42.089008, -72.576431,,,,,,
17,"Plumtree Road (In)",,  42.432369, -72.544518,,,,,,
170,"Hampshire Plaza/ Big Y",,  42.340733, -72.642075,,,,,,
1700,"BELMONT / BELLEVUE",,  42.088768, -72.571800,,,,,,
1701,"WHITE / KIMBERLY",,  42.088844, -72.550842,,,,,,
1702,"Sumner/Perkins",,  42.088898, -72.544250,,,,,,
1703,"BELMONT / BELLEVUE",,  42.088581, -72.571274,,,,,,
1704,"WHITE / KIMBERLY",,  42.088730, -72.550827,,,,,,
1705,"FORT PLEASANT / LEETE",,  42.088413, -72.576263,,,,,,
1706,"SUMNER / ECKINGTON",,  42.088654, -72.544769,,,,,,
1707,"DICKINSON / ALDERMAN",,  42.088406, -72.560364,,,,,,
1708,"Fort Pleasant/Forrest Park Ave.",,  42.088238, -72.575897,,,,,,
1709,"DICKINSON / ALDERMAN",,  42.088314, -72.560081,,,,,,
171,"RUSSELL / MIDDLE",,  42.342346, -72.588676,,,,,,
1710,"Belmont/Mountainview",,  42.088081, -72.568626,,,,,,
1711,"Belmont/Keith",,  42.088161, -72.568520,,,,,,
1712,"SUMNER / RITTENHOUSE",,  42.088234, -72.547668,,,,,,
1713,"SPRINGFIELD / ROWLEY",,  42.087173, -72.640823,,,,,,
1714,"BELMONT / HALL",,  42.087914, -72.567177,,,,,,
1715,"Sumner/White",,  42.087948, -72.549187,,,,,,
1716,"Sumner/Irvington",,  42.087902, -72.548592,,,,,,
1717,"Belmont/Litchfield",,  42.087452, -72.565224,,,,,,
1718,"Belmont/Oakland",,  42.087440, -72.564613,,,,,,
1719,"DICKINSON / BURLINGTON",,  42.087456, -72.559158,,,,,,
172,"RUSSELL / MIDDLE",,  42.342201, -72.589355,,,,,,
1720,"DICKINSON / BURLINGTON",,  42.087280, -72.558792,,,,,,
1721,"WHITE / PRISCILLA",,  42.087387, -72.548981,,,,,,
1722,"Sumner/Herman",,  42.087334, -72.552361,,,,,,
1723,"WHITE / PRISCILLA",,  42.087334, -72.548775,,,,,,
1724,"MAIN / FEDERAL",,  42.086487, -72.621979,,,,,,
1725,"Sumner / Bryant",,  42.087162, -72.552444,,,,,,
1726,"SUMNER / POMONA",,  42.086967, -72.554230,,,,,,
1727,"BELMONT / BEAUMONT",,  42.086964, -72.562004,,,,,,
1728,"FORT PLEASANT / CHASE",,  42.086643, -72.575142,,,,,,
1729,"Fort Pleasant/Chase",,  42.086624, -72.574905,,,,,,
173,"RUSSELL / STATE HWY 9",,  42.342014, -72.596077,,,,,,
1730,"Belmont/Beaumont",,  42.086666, -72.561020,,,,,,
1731,"Sumner/Sorrento",,  42.086781, -72.555138,,,,,,
1732,"MAIN / FEDERAL",,  42.086102, -72.621178,,,,,,
1733,"SUMNER / ORMOND",,  42.086643, -72.555092,,,,,,
1734,"Cooley/Caitlin(opposite)",,  42.087002, -72.502693,,,,,,
1735,"DICKINSON / SUMNER",,  42.086433, -72.558044,,,,,,
1736,"DICKINSON / SUMNER",,  42.086376, -72.557831,,,,,,
1737,"BELMONT / RAMP",,  42.086353, -72.559280,,,,,,
1738,"SUMNER / DICKINSON",,  42.086353, -72.557518,,,,,,
1739,"SPRINGFIELD / ROYAL",,  42.085411, -72.643021,,,,,,
174,"RUSSELL / WEST",,  42.341953, -72.594429,,,,,,
1740,"WHITE / MORNINGSIDE",,  42.086243, -72.547279,,,,,,
1741,"STATE HWY 83 / BELMONT",,  42.085979, -72.557182,,,,,,
1742,"MAIN / FEDERAL",,  42.085388, -72.620224,,,,,,
1743,"SPRINGFIELD / KRISTEN",,  42.085114, -72.643280,,,,,,
1744,"Canon Circle #1",,  42.086403, -72.504814,,,,,,
1745,"Canon Circle #3",,  42.086334, -72.504639,,,,,,
1746,"DICKINSON / SUMNER",,  42.085857, -72.557472,,,,,,
1747,"Belmont/Commonwealth(opposite)",,  42.085869, -72.555946,,,,,,
1748,"WHITE / LONGFELLOW",,  42.085964, -72.547012,,,,,,
1749,"SUMNER / BEAUMONT",,  42.085663, -72.560921,,,,,,
175,"RUSSELL / ELMWOOD",,  42.340919, -72.601372,,,,,,
1750,"BELMONT / ORMOND",,  42.085579, -72.554977,,,,,,
1751,"SUMNER / PARKWOOD",,  42.085522, -72.560745,,,,,,
1752,"WHITE / LARKSPUR",,  42.085445, -72.546165,,,,,,
1753,"Belmont/Daytona",,  42.085281, -72.552727,,,,,,
1754,"SUMNER / OAKLAND",,  42.085148, -72.562813,,,,,,
1755,"BELMONT / HOLLYWOOD",,  42.085205, -72.553055,,,,,,
1756,"Sumner/Oakland",,  42.085087, -72.563873,,,,,,
1757,"BELMONT / ORLANDO",,  42.085098, -72.551674,,,,,,
1758,"Sumner/Sumner Terrance",,  42.084831, -72.565178,,,,,,
1759,"SPRINGFIELD / WILSON",,  42.083977, -72.644836,,,,,,
176,"RUSSELL / ELMWOOD",,  42.340694, -72.601494,,,,,,
1760,"DICKINSON / TRENTON",,  42.084862, -72.556442,,,,,,
1761,"Belmont/Itendale",,  42.084854, -72.551018,,,,,,
1762,"DICKINSON / TRENTON",,  42.084824, -72.556244,,,,,,
1763,"Belmont/Bryant",,  42.084904, -72.550568,,,,,,
1764,"FORT PLEASANT / WARNER",,  42.084484, -72.574280,,,,,,
1765,"Forrest Park Entrance",,  42.084564, -72.565819,,,,,,
1766,"SUMNER / GREENLEAF",,  42.084423, -72.567276,,,,,,
1767,"SPRINGFIELD / SHERI",,  42.083771, -72.644966,,,,,,
1768,"Belmont/Longfellow",,  42.084415, -72.547951,,,,,,
1769,"Belmont/Whittier (opposite)",,  42.084316, -72.548119,,,,,,
177,"Meadowbrook Apartments",,  42.339218, -72.660553,,,,,,
1770,"SUMNER / FOREST PARK",,  42.083923, -72.569153,,,,,,
1771,"WHITE / BLAINE",,  42.084011, -72.544342,,,,,,
1772,"Belmont/Kenwood Park",,  42.083965, -72.544121,,,,,,
1773,"DICKINSON / TRAFTON",,  42.083752, -72.555176,,,,,,
1774,"Sumner/Randolph",,  42.083504, -72.572006,,,,,,
1775,"Belmont/Fountain(opposite)",,  42.083752, -72.544441,,,,,,
1776,"Sumner/Firglade",,  42.083466, -72.571411,,,,,,
1777,"BELMONT / FOUNTAIN",,  42.083679, -72.544655,,,,,,
1778,"DICKINSON / TRAFTON",,  42.083607, -72.555176,,,,,,
1779,"FORT PLEASANT / SUMNER",,  42.083363, -72.573692,,,,,,
178,"Russell/Bay",,  42.339928, -72.606712,,,,,,
1780,"SUMNER / BEECHWOOD",,  42.083145, -72.573128,,,,,,
1782,"SPRINGFIELD / CLEVELAND",,  42.082298, -72.646942,,,,,,
1783,"SPRINGFIELD / CHAPIN",,  42.082016, -72.647163,,,,,,
1784,"MAIN / COOPER",,  42.081799, -72.615929,,,,,,
1785,"White/Eleanor",,  42.082417, -72.542175,,,,,,
1786,"DICKINSON / WASHINGTON",,  42.082291, -72.554771,,,,,,
1787,"SPRINGFIELD / SHIBLEY",,  42.081131, -72.648453,,,,,,
1788,"DICKINSON / WASHINGTON",,  42.081966, -72.554604,,,,,,
1789,"White/Manitoba",,  42.082264, -72.541702,,,,,,
1790,"SPRINGFIELD / SHIBLEY",,  42.080990, -72.648499,,,,,,
1791,"White/Sunapee",,  42.081799, -72.540695,,,,,,
1792,"SPRINGFIELD / LINE",,  42.080173, -72.649696,,,,,,
1793,"DWIGHT / WHITE",,  42.081173, -72.540016,,,,,,
1795,"DWIGHT / STANTON",,  42.081036, -72.539902,,,,,,
1796,"SPRINGFIELD / LETENDRE",,  42.079987, -72.649796,,,,,,
1797,"N. Main/Rosemont",,  42.080559, -72.537979,,,,,,
1798,"Main/Van Dyke",,  42.080215, -72.536926,,,,,,
1799,"DICKINSON / OLMSTED",,  42.079960, -72.554276,,,,,,
18,"Plumtree Road (Out)",,  42.431259, -72.543449,,,,,,
180,"Meadowbrook Apartments",,  42.339474, -72.660492,,,,,,
1800,"MAIN / DORSET",,  42.080082, -72.534912,,,,,,
1801,"SPRINGFIELD / MOORELAND",,  42.078789, -72.651497,,,,,,
1802,"Main/Gerrard",,  42.079830, -72.533714,,,,,,
1803,"DICKINSON / OLMSTED",,  42.079670, -72.554352,,,,,,
1804,"SPRINGFIELD / HALL",,  42.078671, -72.651512,,,,,,
1805,"Big Y East Longmeadow",,  42.079754, -72.527634,,,,,,
1806,"Hertiage Nursing Home",,  42.080872, -72.618439,,,,,,
1807,"Main/Lombard(opposite)",,  42.079441, -72.531853,,,,,,
1808,"MAIN / LOMBARD",,  42.079399, -72.532066,,,,,,
1809,"SPRINGFIELD / UNNAMED STREET",,  42.077892, -72.652664,,,,,,
181,"South Amherst Common",,  42.340923, -72.504890,,,,,,
1810,"DWIGHT / IRVING",,  42.078590, -72.539619,,,,,,
1811,"DICKINSON / COPELAND",,  42.077892, -72.553955,,,,,,
1812,"STOP AND SHOP DRIVE (EAST LONGMEADOW N. MAIN)",,  42.077805, -72.527153,,,,,,
1813,"DICKINSON / TEXEL",,  42.077473, -72.554001,,,,,,
1814,"DWIGHT / HARTWICK",,  42.077446, -72.539108,,,,,,
1815,"SPRINGFIELD / FRANKLIN",,  42.076382, -72.654495,,,,,,
1816,"DWIGHT / HARTWICK",,  42.077404, -72.539192,,,,,,
1817,"MAIN / DEARBORN",,  42.077438, -72.522820,,,,,,
1818,"SPRINGFIELD / ANNABLE",,  42.076080, -72.655022,,,,,,
1819,"DICKINSON / ELWOOD",,  42.076405, -72.553589,,,,,,
182,"Meadowbrook Apartments",,  42.339321, -72.660477,,,,,,
1820,"SPRINGFIELD / AMHERST",,  42.074970, -72.656479,,,,,,
1821,"SPRINGFIELD / HASTINGS",,  42.074699, -72.656677,,,,,,
1822,"TIFFANY / BREMEN",,  42.075722, -72.548843,,,,,,
1824,"SPRINGFIELD / BESSBROOK",,  42.074352, -72.657135,,,,,,
1825,"DWIGHT / FENIMORE",,  42.074982, -72.538841,,,,,,
1826,"Dwight/Fenimore",,  42.074924, -72.538734,,,,,,
1827,"TIFFANY / WEYMOUTH",,  42.074486, -72.546745,,,,,,
1828,"MAIN / SHAW",,  42.074715, -72.520729,,,,,,
1829,"SPRINGFIELD / AGNOLI",,  42.072876, -72.659203,,,,,,
183,"Russell/Bay (Barn Shops)",,  42.339691, -72.607033,,,,,,
1830,"MAIN / SHAW",,  42.074306, -72.520287,,,,,,
1831,"MAIN / EDWARD",,  42.072823, -72.614662,,,,,,
1832,"DWIGHT / ANGLESEA",,  42.073254, -72.538589,,,,,,
1833,"MAIN / ALBERT",,  42.072205, -72.614838,,,,,,
1834,"DWIGHT / CHANNING",,  42.073273, -72.538498,,,,,,
1835,"MAIN / RAMP",,  42.072701, -72.518814,,,,,,
1836,"TIFFANY / BRENTWOOD",,  42.072132, -72.544708,,,,,,
1837,"Country View Eastates",,  42.070648, -72.678505,,,,,,
1838,"DWIGHT / HARPER",,  42.070808, -72.538132,,,,,,
1839,"TIFFANY / RUBY",,  42.070812, -72.543579,,,,,,
184,"Dairy Mart (Out)",,  42.340313, -72.520180,,,,,,
1840,"MAIN / FRANKWYN",,  42.070698, -72.516914,,,,,,
1841,"DWIGHT / COCHRANE",,  42.070313, -72.537865,,,,,,
1842,"SPRINGFIELD / BELVIDERE",,  42.068764, -72.667091,,,,,,
1843,"TIFFANY / FRANCONIA",,  42.069702, -72.542374,,,,,,
1844,"SPRINGFIELD / NORTHWOOD",,  42.068375, -72.670090,,,,,,
1845,"JAMESTOWN / DICKINSON",,  42.069168, -72.554832,,,,,,
1846,"MAIN / MONROE",,  42.068348, -72.615479,,,,,,
1847,"MAIN / MONROE",,  42.068119, -72.615646,,,,,,
1848,"Elks Club",,  42.068836, -72.541428,,,,,,
1849,"SPRINGFIELD / UNNAMED STREET",,  42.067310, -72.675293,,,,,,
185,"Middle Street (E)",,  42.340260, -72.504967,,,,,,
1850,"SPRINGFIELD / UNNAMED STREET",,  42.067314, -72.674591,,,,,,
1851,"JAMESTOWN / YORKTOWN",,  42.068386, -72.553711,,,,,,
1852,"SPRINGFIELD / SOUTHWICK",,  42.067039, -72.677650,,,,,,
1853,"SPRINGFIELD / SOUTHWICK",,  42.066895, -72.678085,,,,,,
1854,"TIFFANY / CRESTMONT",,  42.067654, -72.540169,,,,,,
1855,"MAIN / BROOK",,  42.067776, -72.514656,,,,,,
1856,"DWIGHT / PUTTING GREEN",,  42.067608, -72.538574,,,,,,
1857,"Dwight/Putting Green (opposite)",,  42.067131, -72.538956,,,,,,
1858,"WILLIAMSBURG / JAMESTOWN",,  42.067024, -72.552322,,,,,,
1859,"Longmeadow/Englewood(Flag stop - signal driver)",,  42.064720, -72.579239,,,,,,
186,"Carriage Lane (E)",,  42.340076, -72.514160,,,,,,
1860,"MAIN / ELM",,  42.065388, -72.513420,,,,,,
1862,"CONVERSE / RUTH HOUSE",,  42.064140, -72.551132,,,,,,
1863,"Pheasant Hill Appartments",,  42.062672, -72.692207,,,,,,
1864,"BROWNSTONE APT DRIVE / BROWNSTONE",,  42.064129, -72.505821,,,,,,
1865,"Jewish Geriatric Services",,  42.063637, -72.550636,,,,,,
1866,"Jewish Geriatric Services",,  42.063065, -72.549347,,,,,,
1867,"Longmeadow/Warren (Flag stop - signal driver)",,  42.062359, -72.579254,,,,,,
1868,"SOMERS / PARK",,  42.062599, -72.509369,,,,,,
1869,"CONVERSE / TABOR",,  42.061211, -72.548431,,,,,,
187,"Pomeroy Lane (E)",,  42.339981, -72.519768,,,,,,
1870,"SOMERS / UNNAMED STREET",,  42.060863, -72.506912,,,,,,
1871,"Longmeadow/Longmeadow (Flag stop - signal driver)",,  42.060184, -72.579735,,,,,,
1873,"AGAWAM IND. PARK DRIVE EXT. / UNNAMED ST",,  42.059528, -72.660477,,,,,,
1874,"QUARRY HILL APT ROAD / QUARRY",,  42.058777, -72.507950,,,,,,
1875,"Longmeadow/Chandler (Flag stop - signal driver)",,  42.057854, -72.580482,,,,,,
1876,"Longmeadow/Emerson (Flag stop - signal driver)",,  42.057354, -72.580856,,,,,,
1877,"Longmeadow/Hopkins (Flag stop - signal driver)",,  42.056408, -72.581161,,,,,,
1878,"Longmeadow/Greenacre (Flag stop - signal driver)",,  42.055470, -72.581665,,,,,,
1879,"ALMGREN / GEN CREIGHTON W ABRAMS",,  42.054405, -72.658669,,,,,,
188,"HATFIELD / BRIDGE",,  42.338551, -72.648270,,,,,,
1880,"Longmeadow/York (Flag stop - signal driver)",,  42.054901, -72.581635,,,,,,
1882,"East Village Place",,  42.054165, -72.533615,,,,,,
1883,"Longmeadow/Longmeadow (Flag stop - signal driver)",,  42.054005, -72.582123,,,,,,
1884,"BENTON / UNNAMED STREET",,  42.050407, -72.532333,,,,,,
1886,"Longmeadow/Wms (S) (Flag stop - signal driver)",,  42.050457, -72.582947,,,,,,
1887,"Longmeadow/Chandler (Flag stop - signal driver)",,  42.050144, -72.582939,,,,,,
1888,"SUFFIELD / ADAMS",,  42.048786, -72.634941,,,,,,
1889,"Longmeadow/Birnie (Flag stop - signal driver)",,  42.045353, -72.584007,,,,,,
189,"BRIDGE / HATFIELD",,  42.338284, -72.648781,,,,,,
1890,"Longmeadow/Crescent (Flag stop - signal driver)",,  42.044147, -72.584206,,,,,,
1892,"Longmeadow/Longview (Flag stop - signal driver)",,  42.041809, -72.584267,,,,,,
1893,"Longmeadow/Summit(Flag stop - signal driver)",,  42.039253, -72.584198,,,,,,
1894,"Longmeadow/Summit (Flag stop - signal driver)",,  42.039753, -72.584007,,,,,,
1895,"Longmeadow/Jonquil (Flag stop - signal driver)",,  42.034367, -72.582825,,,,,,
1896,"Longmeadow/Nevins (Flag stop - signal driver)",,  42.031487, -72.581963,,,,,,
1897,"Longmeadow/Maple (Flag stop - signal driver)",,  42.032963, -72.582413,,,,,,
1898,"Longmeadow/Nevins (Flag stop - signal driver)",,  42.031223, -72.581787,,,,,,
1899,"Longmeadow/Homestead (Flag stop - signal driver)",,  42.028191, -72.581467,,,,,,
19,"Bioshelter (Out)",,  42.427429, -72.540283,,,,,,
190,"Meadowbrook Apartments",,  42.336670, -72.661140,,,,,,
1900,"Longmeadow/Lawnwood (Flag stop - signal driver)",,  42.026752, -72.582451,,,,,,
1901,"Longmeadow/Lawnwood (Flag stop - signal driver)",,  42.026566, -72.582489,,,,,,
1902,"LONGMEADOW / ENFIELD",,  42.025379, -72.583488,,,,,,
1903,"Longmeadow/Booth (Flag stop - signal driver)",,  42.024857, -72.583717,,,,,,
1904,"LOWER WESTFIELD / UNKNOWN",,  42.174084, -72.647041,,,,,,
1905,"Main/St. George (2)",,  42.109135, -72.600815,,,,,,
1906,"Main/Boylston",,  42.107887, -72.599525,,,,,,
1907,"Main/Patton",,  42.107780, -72.599075,,,,,,
1908,"MAIN / EMERY",,  42.106949, -72.598595,,,,,,
1909,"Springfield Post Office",,  42.106243, -72.597252,,,,,,
191,"Meadowbrook Apartments",,  42.337582, -72.661057,,,,,,
1910,"MAIN / CONGRESS",,  42.106018, -72.597359,,,,,,
1911,"LIBERTY / DWIGHT",,  42.107075, -72.594986,,,,,,
1912,"LIBERTY / DWIGHT",,  42.107300, -72.594521,,,,,,
1913,"LIBERTY / DWIGHT",,  42.108147, -72.593544,,,,,,
1914,"LIBERTY / DWIGHT",,  42.108341, -72.593590,,,,,,
1915,"CHESTNUT / LIBERTY",,  42.108986, -72.592850,,,,,,
1916,"CHESTNUT / CONGRESS",,  42.109890, -72.593819,,,,,,
1917,"LIBERTY / CHESTNUT",,  42.108902, -72.592323,,,,,,
1918,"LIBERTY / CHESTNUT",,  42.109245, -72.592026,,,,,,
1919,"FRANKLIN / LIBERTY",,  42.110802, -72.592278,,,,,,
192,"Forsander Apt.",,  42.337269, -72.670547,,,,,,
1920,"DWIGHT / CONGRESS",,  42.108677, -72.595543,,,,,,
1921,"DWIGHT / WORTHINGTON",,  42.105145, -72.590660,,,,,,
1922,"WORTHINGTON / STEARNS",,  42.104813, -72.591576,,,,,,
1923,"This stop is no longer used",,  42.104115, -72.593590,,,,,,
1924,"Main/Hampden",,  42.104332, -72.594223,,,,,,
193,"Tracy Circle (W)",,  42.338520, -72.528069,,,,,,
194,"Jackson/Gleason (Hampshire Heights)",,  42.337112, -72.642700,,,,,,
195,"Tracy Circle (E)",,  42.338165, -72.523636,,,,,,
196,"Farmington (N)",,  42.337933, -72.531570,,,,,,
197,"North Street (In)",,  42.338520, -72.457428,,,,,,
198,"North Street (Out)",,  42.338253, -72.457474,,,,,,
199,"MEADOWBROOK APARTMENTS / STRAW",,  42.336372, -72.661316,,,,,,
2,"Mountain Road (Out)",,  42.472538, -72.601402,,,,,,
20,"Bioshelter (In)",,  42.427574, -72.540581,,,,,,
200,"MEADOWBROOK APARTMENTS / STRAW",,  42.336521, -72.661133,,,,,,
201,"Maple/Main (High St. Variant)",,  42.335979, -72.672012,,,,,,
202,"Jackson/Jackson (Jackson St. School)",,  42.335800, -72.643578,,,,,,
203,"MAIN / MAPLE",,  42.335617, -72.672157,,,,,,
204,"Florence Center",,  42.335506, -72.672363,,,,,,
206,"Farmington (S)",,  42.336243, -72.532089,,,,,,
207,"CHESTNUT / MAIN",,  42.335014, -72.667587,,,,,,
208,"Maple/Main (outbound)",,  42.334846, -72.672050,,,,,,
209,"Main/Wilder (52 Main St. Florence)",,  42.334820, -72.668434,,,,,,
21,"Mill Hollow Apts.",,  42.416092, -72.520538,,,,,,
210,"STRAW / BERKSHIRE",,  42.334656, -72.663773,,,,,,
211,"STRAW / BERKSHIRE",,  42.334972, -72.663597,,,,,,
212,"BARRETT / JACKSON",,  42.334080, -72.643547,,,,,,
213,"BARRETT / JACKSON",,  42.333988, -72.643105,,,,,,
214,"Barrett/Hathaway Farms (outbound)",,  42.333782, -72.639969,,,,,,
215,"Barrett/Hathaway Farms (inbound)",,  42.333740, -72.639832,,,,,,
216,"BARRETT / KING",,  42.333500, -72.636482,,,,,,
217,"Longmeadow Drive",,  42.334526, -72.524353,,,,,,
218,"BARRETT / KING",,  42.333443, -72.636169,,,,,,
219,"Damon Road",,  42.332924, -72.621559,,,,,,
22,"Market Hill Road",,  42.415382, -72.507339,,,,,,
220,"MAPLE / PINE",,  42.332199, -72.672112,,,,,,
221,"Potwine Lane (In)",,  42.333149, -72.523468,,,,,,
222,"Potwine Lane (Out)",,  42.332973, -72.523613,,,,,,
223,"LOCUST / PROSPECT",,  42.331657, -72.653183,,,,,,
224,"LOCUST / PROSPECT",,  42.331490, -72.653214,,,,,,
225,"PINE / CORTICELLI",,  42.331150, -72.676453,,,,,,
226,"Starlite Center",,  42.330120, -72.675125,,,,,,
227,"FLORENCE / RYAN",,  42.329987, -72.678757,,,,,,
228,"Stop and Shop",,  42.329475, -72.636169,,,,,,
229,"Sheldon Field (W)",,  42.328922, -72.624268,,,,,,
23,"Summer Street (Out)",,  42.414001, -72.528481,,,,,,
230,"Sheldon Field (E)",,  42.328938, -72.624115,,,,,,
231,"Gulf Road (In)",,  42.329556, -72.448021,,,,,,
232,"Gulf Road (Out)",,  42.329529, -72.448265,,,,,,
233,"King/Church (Wendys)",,  42.328800, -72.633537,,,,,,
234,"Elm/Connecting Road (Childs Park)",,  42.326138, -72.649696,,,,,,
235,"Elm/Connecting Road (Northampton High School)",,  42.325180, -72.649391,,,,,,
237,"Florence Heights",,  42.323795, -72.676689,,,,,,
238,"Pomeroy Terrace",,  42.324024, -72.625267,,,,,,
239,"King/North (Cumberland Farms)",,  42.323471, -72.632530,,,,,,
24,"Cushman Day School",,  42.413822, -72.506348,,,,,,
240,"Diane Lane (In)",,  42.325516, -72.439056,,,,,,
241,"Diane Lane (Out)",,  42.325356, -72.438461,,,,,,
242,"King/Bright (Dunkin Donuts)",,  42.323509, -72.632416,,,,,,
244,"Northampton Post Office",,  42.321621, -72.627060,,,,,,
246,"King/Allen (Hotel Northampton)",,  42.320587, -72.630905,,,,,,
247,"Eric Carle Museum",,  42.321018, -72.533264,,,,,,
248,"Hollen Glen (In)",,  42.321774, -72.428062,,,,,,
249,"King/Merrick (Calvin Theatre)",,  42.319984, -72.630173,,,,,,
25,"Cushman Center",,  42.412968, -72.508003,,,,,,
250,"Hollen Glen (Out)",,  42.321751, -72.428177,,,,,,
251,"Smith College",,  42.319611, -72.637550,,,,,,
252,"Prospect Street",,  42.319721, -72.637474,,,,,,
254,"Northampton Court House",,  42.319279, -72.630333,,,,,,
255,"Atkins Farm (In)",,  42.319580, -72.528694,,,,,,
256,"Thornes Market (R44 Only)",,  42.318462, -72.631142,,,,,,
257,"Atkins Farm (Out)",,  42.319511, -72.528717,,,,,,
259,"Northampton Lodging",,  42.317944, -72.627502,,,,,,
26,"Pine Street",,  42.412392, -72.513252,,,,,,
260,"Masonic St/ Academy of Music OB",,  42.317841, -72.633232,,,,,,
261,"Academy of Music",,  42.317692, -72.633049,,,,,,
262,"Pleasant St/ Hockanum Rd OB",,  42.315002, -72.625252,,,,,,
263,"Fruit St/ Old South St",,  42.315132, -72.631729,,,,,,
264,"Cedarwood Apts. (Out)",,  42.315971, -72.425941,,,,,,
265,"Cedarwood Apts. (In)",,  42.315968, -72.425835,,,,,,
266,"FRUIT / SMITH",,  42.313747, -72.629555,,,,,,
267,"Walter Salvo House",,  42.313328, -72.627625,,,,,,
268,"Conz St/ Dialysis Center",,  42.313232, -72.626892,,,,,,
269,"Glenn's Glen (In)",,  42.311531, -72.422951,,,,,,
27,"N Amherst - Rt 63 (In)",,  42.411125, -72.530647,,,,,,
270,"Glenn's Glen (Out)",,  42.311543, -72.423073,,,,,,
273,"Bay Road (In)",,  42.298473, -72.415894,,,,,,
274,"Bay Road (Out)",,  42.298462, -72.416046,,,,,,
275,"Wing Medical Center",,  42.291534, -72.406693,,,,,,
276,"Quabbin Village (In)",,  42.290661, -72.408340,,,,,,
278,"Quabbin Village (Out)",,  42.290298, -72.408112,,,,,,
2780,"Woodhaven Drive (In)",,  42.283665, -72.405807,,,,,,
2781,"Woodhaven Drive (Out)",,  42.283451, -72.405861,,,,,,
279,"Stop and Shop",,  42.289738, -72.411224,,,,,,
28,"State Street",,  42.410637, -72.524292,,,,,,
281,"Belchertown Wellness Center",,  42.287560, -72.398918,,,,,,
282,"Post Office  Easthampton",,  42.284645, -72.664246,,,,,,
283,"Oneil St",,  42.284969, -72.656189,,,,,,
284,"Oneil St",,  42.284962, -72.656090,,,,,,
288,"CVS  Easthampton",,  42.279968, -72.671181,,,,,,
289,"Mill Hollow",,  42.281830, -72.398422,,,,,,
291,"Belchertown Center 1",,  42.279636, -72.402382,,,,,,
292,"LOVEFIELD / TERRACE",,  42.276112, -72.657539,,,,,,
293,"PLEASANT / TERRACE",,  42.275902, -72.657845,,,,,,
294,"Belchertown Center 2",,  42.277596, -72.400818,,,,,,
296,"PLEASANT / RIDGEWOOD",,  42.274158, -72.661835,,,,,,
297,"Pleasant / Ridgewood",,  42.274017, -72.661934,,,,,,
299,"Everett Acres",,  42.275425, -72.397148,,,,,,
3,"Mountain Road (In)",,  42.472420, -72.601395,,,,,,
30,"Townhouse (In)",,  42.409622, -72.533463,,,,,,
300,"Pleasant/Hill  (Eastworks)",,  42.272388, -72.667213,,,,,,
302,"Big E / Senior Center",,  42.271198, -72.672089,,,,,,
303,"Easthampton Town Hall",,  42.270527, -72.672203,,,,,,
304,"J. Sullivan Housing",,  42.269955, -72.656601,,,,,,
305,"Senior Center",,  42.271652, -72.414299,,,,,,
308,"UNION / LIBERTY",,  42.267006, -72.669983,,,,,,
31,"North Amherst (Out)",,  42.409172, -72.530632,,,,,,
313,"UNION / WILLISTON",,  42.265858, -72.669342,,,,,,
314,"UNION / WILLISTON",,  42.265594, -72.668991,,,,,,
315,"Highland Villiage Apartments",,  42.268761, -72.236061,,,,,,
316,"Sunrise Manor",,  42.264149, -72.660599,,,,,,
318,"Cottage and Clark Outbound",,  42.263981, -72.663963,,,,,,
319,"Convent Hill Rd",,  42.267544, -72.237617,,,,,,
32,"North Amherst (In)",,  42.409107, -72.530739,,,,,,
320,"Silver Street (Out)",,  42.261147, -72.572899,,,,,,
322,"Warebrook Village  Ware",,  42.263344, -72.254181,,,,,,
323,"S. Hadley Center",,  42.258011, -72.575905,,,,,,
325,"Friendly's on North St.",,  42.260811, -72.241577,,,,,,
326,"Wilson's Pahrmacy",,  42.259613, -72.239372,,,,,,
328,"Cliffview Manor",,  42.256584, -72.656670,,,,,,
329,"Stone Shelter",,  42.257267, -72.576042,,,,,,
33,"Grantwood Drive",,  42.406830, -72.514465,,,,,,
330,"DRIVEWAY / MAIN",,  42.257755, -72.688721,,,,,,
331,"Ware Town Hall",,  42.260498, -72.242302,,,,,,
334,"STATE / WEST",,  42.256866, -72.516434,,,,,,
335,"Big Y  Southampton",,  42.253681, -72.697952,,,,,,
337,"White Brook Middle School",,  42.253448, -72.672600,,,,,,
339,"Valley View",,  42.256287, -72.245636,,,,,,
34,"Puffton Village 1",,  42.405869, -72.532486,,,,,,
340,"Brooks Pharmacy  Ware",,  42.256020, -72.251450,,,,,,
341,"Mary Lane Hosiptal",,  42.253132, -72.242676,,,,,,
342,"PHINS HILL / PHINS HILL",,  42.250328, -72.538353,,,,,,
343,"Pine Valley Club House",,  42.245869, -72.405975,,,,,,
344,"STATE / HIGH",,  42.243198, -72.549278,,,,,,
345,"NEWTON / LYMAN",,  42.235722, -72.583336,,,,,,
346,"Walmart  Ware",,  42.238144, -72.279404,,,,,,
347,"JUDD / MAIN",,  42.230438, -72.604065,,,,,,
348,"LATHROP / APPLEWOOD",,  42.226181, -72.599152,,,,,,
35,"Puffton Village 2",,  42.404942, -72.530884,,,,,,
350,"LAMB / RAMP",,  42.220646, -72.590790,,,,,,
351,"LAMB / LAMB",,  42.220352, -72.590973,,,,,,
352,"University Park Apt",,  42.217472, -72.637894,,,,,,
353,"LAMB / SCHOOL",,  42.217552, -72.591965,,,,,,
354,"LINCOLN / TAYLOR",,  42.216099, -72.619324,,,,,,
355,"BRIDGE / GRANT",,  42.216152, -72.593391,,,,,,
356,"PLEASANT / LINCOLN",,  42.215889, -72.620277,,,,,,
357,"BRIDGE / SCHOOL ST",,  42.216103, -72.593315,,,,,,
358,"BRIDGE / MAIN",,  42.215374, -72.594498,,,,,,
359,"STOP AND SHOP DR / HAMPDEN",,  42.214046, -72.617805,,,,,,
36,"Cherry Lane",,  42.404533, -72.514862,,,,,,
360,"HAMPDEN / PLEASANT",,  42.213360, -72.620941,,,,,,
361,"HAMPDEN / NONOTUCK",,  42.213268, -72.623291,,,,,,
362,"HAMPDEN / ARLINGTON",,  42.213116, -72.627724,,,,,,
363,"PLEASANT / HAMPDEN",,  42.213028, -72.620308,,,,,,
364,"NORTHAMPTON / HAMPDEN",,  42.212429, -72.629700,,,,,,
365,"NEW LUDLOW / LORETTA",,  42.212353, -72.572510,,,,,,
367,"DWIGHT / NONOTUCK",,  42.210915, -72.622917,,,,,,
368,"DWIGHT / SAINT JEROME",,  42.210838, -72.625557,,,,,,
369,"DWIGHT / LYNWOOD",,  42.210728, -72.629265,,,,,,
370,"LYMAN / ELM",,  42.210846, -72.608261,,,,,,
371,"WALNUT / HAMPDEN",,  42.210678, -72.609459,,,,,,
372,"CHESTNUT / LYMAN",,  42.210484, -72.606987,,,,,,
373,"APPLETON / POPLAR",,  42.210194, -72.619652,,,,,,
374,"MAPLE / SAINT KOLBE",,  42.210274, -72.605644,,,,,,
375,"Bondsville",,  42.213127, -72.344978,,,,,,
376,"PLEASANT / FORESTDALE",,  42.209518, -72.620499,,,,,,
377,"LYMAN / MAPLE",,  42.209599, -72.605820,,,,,,
38,"North Village",,  42.403198, -72.529160,,,,,,
380,"ESSEX / SYCAMORE",,  42.208611, -72.619720,,,,,,
381,"APPLETON / OAK",,  42.208782, -72.617035,,,,,,
383,"BRITTON / HUDSON",,  42.208508, -72.573677,,,,,,
384,"LOCUST / ESSEX",,  42.207859, -72.618958,,,,,,
386,"Sullivan School",,  42.207066, -72.646240,,,,,,
387,"HIGH / DWIGHT",,  42.206928, -72.607658,,,,,,
388,"LYMAN / SUMMER",,  42.207031, -72.595886,,,,,,
389,"LINDEN / CABOT",,  42.206772, -72.618874,,,,,,
39,"Sheerman Lane",,  42.402130, -72.515343,,,,,,
390,"APPLETON / WALNUT",,  42.206947, -72.613594,,,,,,
391,"LYMAN / CENTER",,  42.206787, -72.598335,,,,,,
392,"ESSEX / BEECH",,  42.206562, -72.615974,,,,,,
393,"MAPLE / SUFFOLK",,  42.206524, -72.609390,,,,,,
394,"DWIGHT / FRONT",,  42.206089, -72.605820,,,,,,
395,"SARGEANT / SAINT JEROME",,  42.205734, -72.625534,,,,,,
396,"SARGEANT / MAGNOLIA",,  42.205662, -72.623665,,,,,,
397,"SARGEANT / SAINT JEROME",,  42.205650, -72.625847,,,,,,
398,"HIGH / SUFFOLK",,  42.205868, -72.608704,,,,,,
399,"SARGEANT / MAGNOLIA",,  42.205582, -72.623695,,,,,,
4,"Sugarloaf Street (Out)",,  42.467953, -72.595413,,,,,,
40,"Tilson Farm (Out)",,  42.398346, -72.516068,,,,,,
400,"SARGEANT / CHAPMAN",,  42.205456, -72.628441,,,,,,
401,"BETTER / BETTER",,  42.206120, -72.554237,,,,,,
402,"SARGEANT / CHAPMAN",,  42.205372, -72.628830,,,,,,
403,"SARGEANT / NORTHAMPTON",,  42.205273, -72.630363,,,,,,
404,"APPLETON / MAPLE",,  42.205387, -72.610809,,,,,,
405,"ESSEX / ELM",,  42.205334, -72.613640,,,,,,
406,"MOSHER / WEST",,  42.205395, -72.600258,,,,,,
408,"MAPLE / APPLETON",,  42.205196, -72.610748,,,,,,
409,"SARGEANT / LOCUST",,  42.204941, -72.622360,,,,,,
41,"Tilson Farm (In)",,  42.398354, -72.516190,,,,,,
410,"NORTHAMPTON / COLUMBUS",,  42.204685, -72.630745,,,,,,
411,"SARGEANT / LOCUST",,  42.204781, -72.622192,,,,,,
412,"HIGH / APPLETON",,  42.204731, -72.609833,,,,,,
413,"MOSHER / BRIDGE",,  42.204590, -72.596382,,,,,,
414,"MAPLE / ESSEX",,  42.204350, -72.611549,,,,,,
415,"HAMPSHIRE / BEECH",,  42.204273, -72.617966,,,,,,
416,"BEECH / HAMPSHIRE",,  42.204193, -72.618477,,,,,,
417,"MAIN / DWIGHT",,  42.204552, -72.602982,,,,,,
418,"Stonybrook Visitor Entrance",,  42.204956, -72.509750,,,,,,
419,"HIGH / ESSEX",,  42.203861, -72.610680,,,,,,
42,"Fairfield Street",,  42.398136, -72.528122,,,,,,
420,"SARGEANT / OAK",,  42.203762, -72.620193,,,,,,
421,"SARGEANT / OAK",,  42.203712, -72.620239,,,,,,
422,"HAMPSHIRE / PINE",,  42.203594, -72.616722,,,,,,
423,"BEECH / SARGEANT",,  42.203510, -72.619293,,,,,,
424,"HAMPSHIRE / WALNUT",,  42.203495, -72.616692,,,,,,
425,"CHERRY / DALE",,  42.203022, -72.645523,,,,,,
426,"NORTHAMPTON / PINEHURST",,  42.203117, -72.631012,,,,,,
427,"CHERRY / MAPLE CREST",,  42.202927, -72.645241,,,,,,
428,"SARGEANT / BEECH",,  42.203144, -72.619026,,,,,,
429,"MAPLE / CABOT",,  42.202919, -72.612991,,,,,,
430,"HIGH / CABOT",,  42.202923, -72.611595,,,,,,
431,"CABOT / HIGH",,  42.202793, -72.612312,,,,,,
432,"MEMORIAL / PROSPECT",,  42.203094, -72.571632,,,,,,
433,"HAMPSHIRE / CHESTNUT",,  42.202641, -72.614944,,,,,,
434,"HAMPSHIRE / CHESTNUT",,  42.202511, -72.614876,,,,,,
435,"SARGEANT / WALNUT",,  42.202389, -72.617783,,,,,,
436,"BEECH / FRANKLIN",,  42.202377, -72.604691,,,,,,
437,"SARGEANT / WALNUT",,  42.202274, -72.617378,,,,,,
438,"MAIN / APPLETON",,  42.202404, -72.604660,,,,,,
439,"MAPLE / HAMPSHIRE",,  42.202240, -72.613663,,,,,,
44,"Sylvan (In)",,  42.397179, -72.521599,,,,,,
440,"BEECH / FRANKLIN",,  42.202190, -72.620888,,,,,,
441,"NORTHAMPTON / FORER",,  42.201958, -72.631088,,,,,,
442,"NORTHAMPTON / FORER",,  42.202076, -72.630913,,,,,,
443,"Cherry and Leary",,  42.201645, -72.643456,,,,,,
444,"CABOT / BOND",,  42.202335, -72.611244,,,,,,
445,"MAIN / APPLETON",,  42.202061, -72.604820,,,,,,
446,"CABOT / BOND",,  42.202076, -72.610954,,,,,,
447,"HAMPSHIRE / HIGH",,  42.201660, -72.613319,,,,,,
448,"Beech and Linden",,  42.201412, -72.622993,,,,,,
449,"SARGEANT / CHESTNUT",,  42.201473, -72.615944,,,,,,
45,"Sylvan (Out)",,  42.397102, -72.521545,,,,,,
450,"SARGEANT / CHESTNUT",,  42.201160, -72.615501,,,,,,
451,"Cherry and Homestead",,  42.201111, -72.641655,,,,,,
452,"HIGH / HAMPSHIRE",,  42.201347, -72.613167,,,,,,
453,"MAPLE / SARGEANT",,  42.201088, -72.614784,,,,,,
454,"Stonybrook Prerelease",,  42.201653, -72.508980,,,,,,
455,"HIGH / SARGEANT",,  42.200542, -72.613937,,,,,,
456,"HOSPITAL / PARKING LOT",,  42.200359, -72.628693,,,,,,
458,"HOSPITAL / PARKING LOT",,  42.200298, -72.628593,,,,,,
459,"MAPLE / SARGEANT",,  42.200356, -72.615501,,,,,,
46,"Totman Gym (In)",,  42.395744, -72.525383,,,,,,
460,"MAIN / CABOT",,  42.200397, -72.606712,,,,,,
461,"BEECH / BEECH",,  42.200153, -72.625870,,,,,,
462,"CABOT / MAIN",,  42.200035, -72.607193,,,,,,
463,"CABOT / CLEMENTE",,  42.199680, -72.606445,,,,,,
464,"BEECH / HOSPITAL",,  42.199448, -72.628159,,,,,,
465,"CABOT / CLEMENTE",,  42.199577, -72.606400,,,,,,
466,"Maple and Jackson",,  42.199501, -72.616325,,,,,,
467,"BEECH / HOSPITAL",,  42.199249, -72.628700,,,,,,
468,"BEECH / NORTHAMPTON",,  42.199154, -72.630562,,,,,,
47,"Totman Gym (Out)",,  42.395676, -72.525284,,,,,,
470,"SOLDIERS HOME / FAIRMONT",,  42.199036, -72.640297,,,,,,
471,"CHERRY / BAY STATE",,  42.199020, -72.632019,,,,,,
472,"CHERRY / HILLSIDE",,  42.198978, -72.633659,,,,,,
473,"HIGH / FRANKLIN",,  42.199123, -72.615318,,,,,,
474,"CHERRY / BAY STATE",,  42.198822, -72.633102,,,,,,
475,"MAIN / HAMILTON",,  42.198997, -72.607979,,,,,,
476,"HILLSIDE / MERKEL",,  42.198147, -72.634254,,,,,,
477,"CABOT / BRIDGE",,  42.198338, -72.604752,,,,,,
478,"CABOT / BRIDGE",,  42.198547, -72.605141,,,,,,
479,"HIGH / JACKSON",,  42.198387, -72.616035,,,,,,
480,"Fleming Industries",,  42.198162, -72.556625,,,,,,
481,"MAIN / SARGEANT",,  42.198189, -72.608757,,,,,,
482,"MEMORIAL / PARKING LOT",,  42.197750, -72.573677,,,,,,
483,"CABOT / CANAL",,  42.197384, -72.603783,,,,,,
484,"CABOT / CANAL",,  42.197361, -72.603600,,,,,,
485,"South and Maple",,  42.196777, -72.619148,,,,,,
486,"MEMORIAL / CONNECTING ROAD",,  42.197136, -72.574272,,,,,,
487,"SOUTH STREET PLAZA DRIVE / SOUTH",,  42.196320, -72.621132,,,,,,
488,"SOUTH / SOUTH",,  42.195679, -72.620850,,,,,,
489,"HILLSIDE / WESTFIELD",,  42.195305, -72.634064,,,,,,
490,"SOUTH / SOUTH STREET PLAZA DRIVE",,  42.195534, -72.621681,,,,,,
491,"FROST CIRCLE / COLLEGE",,  42.195145, -72.652779,,,,,,
492,"HILLSIDE / WESTFIELD",,  42.195354, -72.634178,,,,,,
493,"MAIN / JACKSON",,  42.195789, -72.611206,,,,,,
494,"SOUTH / HARRISON",,  42.194820, -72.625923,,,,,,
495,"SOUTH / HARRISON",,  42.194782, -72.626862,,,,,,
497,"SOUTH / CHAPIN",,  42.194729, -72.624199,,,,,,
498,"WESTFIELD / HITCHCOCK",,  42.194389, -72.635643,,,,,,
499,"HOMESTEAD / LORRAINE",,  42.194267, -72.647186,,,,,,
5,"Sugarloaf Street (In)",,  42.467815, -72.595367,,,,,,
500,"NORTHAMPTON / MYRTLE",,  42.193851, -72.629929,,,,,,
5000,"Converse / Highland (FLAG stop- signal the driver)",,  42.064991, -72.576241,,,,,,
5001,"Converse / Laurel (FLAG stop- signal the driver)",,  42.064934, -72.573540,,,,,,
5002,"Converse / Rugby (FLAG stop- signal the driver)",,  42.065506, -72.567726,,,,,,
5003,"Converse / Porter Lake (FLAG stop- signal driver)",,  42.066074, -72.561852,,,,,,
5004,"Converse / Williamsburg(FLAG stop - signal driver)",,  42.065346, -72.553253,,,,,,
5005,"Granby / Lorraine (FLAG stop - signal driver)",,  42.223412, -72.580894,,,,,,
5006,"Granby / Lyman (FLAG stop - signal driver)",,  42.226063, -72.572075,,,,,,
5007,"Granby / Lyman (FLAG stop - signal driver)",,  42.226360, -72.572136,,,,,,
5008,"Granby / Sunset (Flag stop - signal driver)",,  42.232758, -72.565681,,,,,,
5009,"Granby / Mountainview(FLAG stop - signal driver)",,  42.235989, -72.561172,,,,,,
5010,"W. State St. / Pleasant(Flag stop - signal driver)",,  42.246777, -72.544228,,,,,,
5011,"State / Kellogg (Flag stop - signal driver)",,  42.253700, -72.531113,,,,,,
5012,"State / Parish Hill (Flag stop - signal driver)",,  42.255295, -72.522881,,,,,,
5013,"West / Crescent (Flag stop - signal driver)",,  42.258125, -72.527039,,,,,,
5014,"West / Amherst (Flag stop - signal driver)",,  42.259689, -72.539070,,,,,,
5015,"West / Burnett (Flag stop - signal driver)",,  42.261288, -72.545349,,,,,,
5016,"Silver / Chapel Hill (Flag stop - signal driver)",,  42.261787, -72.560638,,,,,,
5017,"East / Morgan (Flag stop - signal driver)",,  42.250069, -72.561798,,,,,,
502,"WESTFIELD / WOODLAND",,  42.193008, -72.636894,,,,,,
5023,"2133 or 2110 Boston Rd (Flag stop - signal driver)",,  42.150005, -72.471809,,,,,,
5024,"Boston Rd / Brainard (Flag stop - signal driver)",,  42.150810, -72.458763,,,,,,
5025,"2443 or 2440 Boston Rd (Flag stop - signal driver)",,  42.149055, -72.446358,,,,,,
5026,"Boston Rd / PO Park (Flag stop - signal driver)",,  42.148739, -72.440933,,,,,,
5027,"Boston Rd / Railroad (Flag stop - signal driver)",,  42.151154, -72.430527,,,,,,
5028,"Main/ Monson (Flag stop - signal driver)",,  42.118095, -72.432510,,,,,,
5029,"Main / Church (Flag stop - signal driver)",,  42.110477, -72.435600,,,,,,
503,"WESTFIELD / WOODLAND",,  42.193108, -72.636703,,,,,,
5030,"Tinkham / Rochford  (Flag stop - signal driver)",,  42.104130, -72.450935,,,,,,
5031,"806 Stoney Hill (Flag stop - signal driver)",,  42.110531, -72.457939,,,,,,
5032,"Sprinfield/ Ripley (Flag stop - signal driver)",,  42.121395, -72.439583,,,,,,
5033,"Springfield / Faculty (Flag stop - signal driver)",,  42.121761, -72.444885,,,,,,
5034,"Springfield / Highland (Flag stop - signal driver)",,  42.119652, -72.463989,,,,,,
5035,"Springfield / Northwood(Flag stop - signal driver)",,  42.120480, -72.456169,,,,,,
5036,"Main / Buckley (Flag stop - signal driver)",,  42.127441, -72.431343,,,,,,
5037,"Main / Pease (Flag stop - signal driver)",,  42.136982, -72.429527,,,,,,
5038,"Main / Merrill (Flag stop - signal driver)",,  42.141636, -72.427544,,,,,,
504,"US HWY 5 / NORTHAMPTON",,  42.192738, -72.629669,,,,,,
5040,"College / Morgan (Flag stop - signal driver)",,  42.252857, -72.577797,,,,,,
5041,"Newton / Burnett (Flag stop - signal driver)",,  42.250858, -72.579018,,,,,,
5042,"Newton / Brainerd (Flag stop - signal driver)",,  42.245041, -72.580482,,,,,,
5043,"Newton / McKinley (Flag stop - signal driver)",,  42.232361, -72.585075,,,,,,
5044,"South Hadley High Sch (Flag stop - signal driver)",,  42.228722, -72.587036,,,,,,
5045,"N Main / Main (Flag stop - signal driver)",,  42.215359, -72.597504,,,,,,
5046,"N Main / High (Flag stop - signal driver)",,  42.219685, -72.600601,,,,,,
5047,"N Main / W Summit (Flag stop - signal driver)",,  42.223461, -72.604156,,,,,,
5048,"193/188 Mian St (Flag stop - signal driver)",,  42.225098, -72.605103,,,,,,
5049,"Bardwell / Linden (Flag stop - signal driver)",,  42.221123, -72.598419,,,,,,
505,"HOMESTEAD / SHEEHAN",,  42.192116, -72.648338,,,,,,
5050,"Bardwell / Crew (Flag stop - signal driver)",,  42.217026, -72.597748,,,,,,
5052,"Lathrop / Judd (Flag stop - signal driver)",,  42.230652, -72.597481,,,,,,
5053,"Westfield / Aprement (Flag stop - signal driver)",,  42.182861, -72.666031,,,,,,
5054,"Westfield / Apremont (Flag stop - signal driver)",,  42.178650, -72.685646,,,,,,
5055,"Westfield / Rider (Flag stop - signal driver)",,  42.179340, -72.706314,,,,,,
5056,"Westfield / Old Stage (Flag stop - signal driver)",,  42.172527, -72.712402,,,,,,
5057,"Westfield /Southampton (Flag stop - signal driver)",,  42.175194, -72.727226,,,,,,
5058,"Southampton / Falcon (Flag stop - signal driver)",,  42.169312, -72.726768,,,,,,
5059,"Southampton/ Air Port (Flag stop - signal driver)",,  42.162243, -72.726341,,,,,,
506,"MEMORIAL / JAMROG",,  42.192772, -72.576225,,,,,,
5060,"Southampton / Hickney  (Flag stop - signal driver)",,  42.149208, -72.728058,,,,,,
5061,"Mass Pike/FriendleyWay (Flag stop - signal driver)",,  42.143341, -72.732079,,,,,,
5062,"N ELm / Notredame (Flag stop - signal driver)",,  42.135838, -72.739334,,,,,,
5063,"N Elm / Union (Flag stop - signal driver)",,  42.130482, -72.745132,,,,,,
507,"MEMORIAL / JAMROG",,  42.192696, -72.575920,,,,,,
5073,"Florence / Scanlon  (Flag stop - signal driver)",,  42.326626, -72.677513,,,,,,
508,"MAIN / BERKSHIRE",,  42.192150, -72.614929,,,,,,
509,"The Kids Place at HCC",,  42.191090, -72.652611,,,,,,
510,"CHICOPEE / BAPTIST",,  42.191559, -72.601097,,,,,,
511,"WESTFIELD / BRAY PARK",,  42.190868, -72.640846,,,,,,
512,"WESTFIELD / BRAY PARK",,  42.190941, -72.639984,,,,,,
513,"NORTHAMPTON / ELMWOOD",,  42.191010, -72.629654,,,,,,
514,"MAIN / RACE",,  42.190350, -72.617523,,,,,,
516,"MAIN / RACE",,  42.190136, -72.618561,,,,,,
517,"WESTFIELD / CONNECTICUT",,  42.189838, -72.642990,,,,,,
518,"CHICOPEE / CHARBONNEAU",,  42.190144, -72.602730,,,,,,
519,"WESTFIELD / CONNECTICUT",,  42.189606, -72.643288,,,,,,
520,"HOMESTEAD / MEMORIAL",,  42.189209, -72.649788,,,,,,
521,"MAIN / VERNON",,  42.189339, -72.621849,,,,,,
522,"WESTFIELD / MEMORIAL",,  42.188644, -72.645889,,,,,,
523,"MEMORIAL / PONDVIEW",,  42.189293, -72.577576,,,,,,
524,"CHICOPEE / BLANCHE",,  42.188389, -72.605385,,,,,,
525,"WESTFIELD / MCGRADY",,  42.187778, -72.647629,,,,,,
526,"WESTFIELD / JOHNS",,  42.187569, -72.648903,,,,,,
527,"MAIN / PREW",,  42.187683, -72.624237,,,,,,
528,"US HWY 5 / NORTHAMPTON",,  42.187145, -72.630035,,,,,,
529,"KMart Parking Lot",,  42.186794, -72.632080,,,,,,
530,"CHICOPEE / STATE HWY 116",,  42.187054, -72.607635,,,,,,
531,"MEMORIAL / PENDLETON",,  42.187038, -72.577660,,,,,,
532,"WESTOVER INDUSTRIAL PARK DRIVE / DULONG",,  42.187183, -72.561691,,,,,,
533,"HOMESTEAD / RAMP",,  42.186291, -72.650574,,,,,,
534,"MEMORIAL / PENDLETON",,  42.186764, -72.577339,,,,,,
535,"HOMESTEAD / PYNCHON",,  42.185234, -72.650063,,,,,,
537,"MEMORIAL / LYNN",,  42.185642, -72.577629,,,,,,
538,"MEADOW / CHICOPEE",,  42.184780, -72.609810,,,,,,
54,"Village Park (N)",,  42.394588, -72.515663,,,,,,
541,"WHITING FARMS / GORDON",,  42.183807, -72.636894,,,,,,
542,"HOMESTEAD / KANE",,  42.183540, -72.648804,,,,,,
543,"Palmer High School",,  42.186134, -72.339836,,,,,,
544,"WHITING FARMS / GORDON",,  42.183437, -72.637001,,,,,,
545,"MEADOW / ALDEN",,  42.183727, -72.610519,,,,,,
546,"KMART PLAZA DRIVE SOUTH / NORTHAMPTON",,  42.183445, -72.632912,,,,,,
547,"Grattan St and Meadow St",,  42.183159, -72.613083,,,,,,
548,"CHICOPEE / ELIZABETH",,  42.182983, -72.613441,,,,,,
549,"GRATTAN / PHILATHEA",,  42.182755, -72.609932,,,,,,
55,"Williamsburg Center/ Grange Hall",,  42.391998, -72.729706,,,,,,
550,"GRATTAN / PHILATHEA",,  42.182705, -72.610260,,,,,,
551,"WHITING FARMS / AUTUMN",,  42.181664, -72.638542,,,,,,
552,"CHICOPEE / WARREGAN",,  42.181416, -72.615448,,,,,,
553,"CHICOPEE / WARREGAN",,  42.181278, -72.615776,,,,,,
554,"HOMESTEAD / CHARLES HILL",,  42.180626, -72.648743,,,,,,
555,"HOMESTEAD / UPLAND",,  42.180405, -72.648636,,,,,,
556,"WHITING FARMS / FARNUM",,  42.180233, -72.639656,,,,,,
557,"WHITING FARMS / JEANNE",,  42.180004, -72.639671,,,,,,
558,"CHICOPEE / DUCHARME",,  42.179821, -72.617622,,,,,,
559,"MEADOW / CHARPENTIER",,  42.179699, -72.612907,,,,,,
56,"Arnold House",,  42.393826, -72.526108,,,,,,
560,"CHICOPEE / NARRAGANSETT",,  42.180019, -72.617493,,,,,,
561,"NORTH / GUN CLUB",,  42.178436, -72.690613,,,,,,
562,"NORTH / GUN CLUB",,  42.178303, -72.690872,,,,,,
563,"MEADOW / THOMAS",,  42.178974, -72.613380,,,,,,
564,"TOKENEKE / HOLY FAMILY",,  42.178455, -72.636719,,,,,,
565,"TOKENEKE / WHITING FARMS",,  42.178421, -72.639870,,,,,,
566,"HOLY FAMILY / UNNAMED STREET",,  42.178127, -72.636398,,,,,,
567,"MAIN / DEAN TECH DRIVE",,  42.178177, -72.629715,,,,,,
568,"MEADOW / DUCHARME",,  42.178249, -72.613876,,,,,,
569,"CHICOPEE / LAWNDALE",,  42.177937, -72.620163,,,,,,
570,"Stop and Shop",,  42.176018, -72.577812,,,,,,
571,"Chudy Corners",,  42.179478, -72.365097,,,,,,
572,"CHICOPEE / BONNER",,  42.177074, -72.621056,,,,,,
573,"MAIN / SAINT VINCENT",,  42.176498, -72.630241,,,,,,
574,"GRATTAN / DALLAIRE",,  42.176388, -72.600708,,,,,,
575,"MEADOW / DORRANCE",,  42.175934, -72.614532,,,,,,
576,"MEADOW / LAWNDALE",,  42.175732, -72.614685,,,,,,
577,"GRATTAN / MARY",,  42.175789, -72.600487,,,,,,
578,"CHICOPEE / CORA",,  42.175491, -72.621643,,,,,,
579,"GRANBY / STANLEY",,  42.175510, -72.586121,,,,,,
58,"GRC",,  42.393482, -72.526077,,,,,,
580,"HOLY FAMILY / DEVONSHIRE",,  42.174751, -72.636627,,,,,,
5800,"Mont Marie",,  42.171665, -72.634911,,,,,,
581,"HOLY FAMILY / DEVONSHIRE",,  42.174610, -72.636559,,,,,,
582,"CHICOPEE / DALEY",,  42.174702, -72.622086,,,,,,
583,"LOWER WESTFIELD / WHITING FARMS",,  42.174519, -72.639481,,,,,,
584,"LOWER WESTFIELD / HOMESTEAD",,  42.173996, -72.647827,,,,,,
585,"Big Y Memorial Dr. Chicopee",,  42.174416, -72.579048,,,,,,
586,"GRATTAN / PROVIDENCE",,  42.174187, -72.599503,,,,,,
587,"GRATTAN / PROVIDENCE",,  42.174149, -72.599373,,,,,,
588,"Chicopee Marketplace",,  42.174374, -72.575233,,,,,,
589,"HOLYOKE CROSSING DRIVE / HOLYOKE CROSSIN",,  42.173565, -72.642036,,,,,,
590,"MAIN / PELTIAH",,  42.173615, -72.631264,,,,,,
591,"GRATTAN / MCKINSTRY",,  42.173626, -72.599205,,,,,,
592,"HOLYOKE CROSSING DRIVE / HOLYOKE CROSSIN",,  42.172516, -72.642593,,,,,,
593,"CHICOPEE / DILLON",,  42.174557, -72.622063,,,,,,
594,"MAIN / JONES FERRY",,  42.171883, -72.631737,,,,,,
5941,"Main / Jones Ferry (across)",,  42.172138, -72.631836,,,,,,
595,"MONTGOMERY / UNKNOWN",,  42.172241, -72.586487,,,,,,
596,"MEADOW / MCKINSTRY",,  42.172241, -72.614632,,,,,,
597,"MONTGOMERY / UNKNOWN",,  42.171986, -72.586571,,,,,,
598,"CHICOPEE / JONES FERRY",,  42.171654, -72.623329,,,,,,
599,"THORNDIKE / SHEARER",,  42.174030, -72.324356,,,,,,
6,"Garage Road (Out)",,  42.465324, -72.575821,,,,,,
600,"Memorial/Ramp 90",,  42.170689, -72.577225,,,,,,
6001,"LIBERTY / UNNAMED STREET",,  42.135651, -72.584305,,,,,,
6002,"LIBERTY / ROY",,  42.129391, -72.584602,,,,,,
6003,"LIBERTY / COLUMBIA",,  42.114182, -72.585922,,,,,,
6004,"LIBERTY / MURRAY HILL",,  42.113205, -72.586990,,,,,,
6005,"LIBERTY / CASS",,  42.111710, -72.588898,,,,,,
6006,"LIBERTY / FRANKLIN",,  42.110222, -72.590767,,,,,,
6007,"FRANKLIN / SAAB",,  42.111309, -72.592133,,,,,,
6008,"East Longmeadow Industrial Park (Flag Stop)",,  42.048042, -72.522614,,,,,,
6009,"Mass Mutual Center",,  42.102978, -72.587387,,,,,,
601,"GRATTAN / PERCY",,  42.171432, -72.597885,,,,,,
6011,"HANCOCK / UNION",,  42.107742, -72.568581,,,,,,
6012,"KING / PRINCE",,  42.105053, -72.565521,,,,,,
6013,"KING / EASTERN",,  42.105320, -72.563255,,,,,,
6015,"QUEEN / WALNUT",,  42.103489, -72.570412,,,,,,
6016,"CHESTNUT / EDWARDS",,  42.103672, -72.586845,,,,,,
6017,"LIBERTY / FRANKLIN",,  42.110397, -72.590424,,,,,,
6018,"LIBERTY / CASS",,  42.111504, -72.589027,,,,,,
6019,"LIBERTY / WEBSTER",,  42.112862, -72.587334,,,,,,
6020,"LIBERTY / COLUMBIA",,  42.114403, -72.585663,,,,,,
6021,"LIBERTY / GENESEE",,  42.116032, -72.584930,,,,,,
6022,"LIBERTY / HOME",,  42.127357, -72.584412,,,,,,
6023,"LIBERTY / LYNWOOD",,  42.133656, -72.584671,,,,,,
6024,"LIBERTY / UNNAMED STREET",,  42.138500, -72.582695,,,,,,
6025,"ALDEN / WILBRAHAM",,  42.102406, -72.559441,,,,,,
6026,"STATE / PLEASANT",,  42.109951, -72.571289,,,,,,
6027,"CLYDE / M",,  42.114754, -72.616623,,,,,,
6028,"CLYDE / PLAINFIELD",,  42.114811, -72.614685,,,,,,
6029,"Mass Mutual Center",,  42.101616, -72.588211,,,,,,
603,"CHICOPEE / JONES FERRY",,  42.170731, -72.623833,,,,,,
6030,"Springfield Library",,  42.103546, -72.583916,,,,,,
6031,"Cooley/Caitlin",,  42.086910, -72.502602,,,,,,
6032,"FRONT / GRAPE",,  42.148079, -72.602974,,,,,,
604,"Memorial/(Park Inn 628)",,  42.171120, -72.577400,,,,,,
605,"MEADOW / CHICOMANSETT",,  42.170986, -72.614464,,,,,,
606,"GRATTAN / TRILBY",,  42.170658, -72.596802,,,,,,
607,"GRATTAN / TRILBY",,  42.170464, -72.596527,,,,,,
608,"GRATTAN / HOBSON",,  42.169411, -72.594864,,,,,,
609,"Holyoke Mall JC Penny Entrance",,  42.169395, -72.640747,,,,,,
610,"CHICOPEE / ELMER",,  42.168640, -72.623672,,,,,,
611,"CHICOPEE / MARSHALL",,  42.168022, -72.623672,,,,,,
612,"STATE HWY 141 / GRATTAN",,  42.167534, -72.592590,,,,,,
613,"MEETING HOUSE / MEADOW",,  42.167957, -72.615059,,,,,,
614,"MEETING HOUSE / MEADOW",,  42.167919, -72.614777,,,,,,
615,"MEETING HOUSE / ELCON",,  42.167847, -72.616165,,,,,,
616,"Big Y Ludlow",,  42.169090, -72.481865,,,,,,
617,"MEETING HOUSE / ELCON",,  42.167732, -72.616646,,,,,,
618,"MEETING HOUSE / GROCKI",,  42.167679, -72.617966,,,,,,
619,"MEETING HOUSE / GROCKI",,  42.167606, -72.617981,,,,,,
62,"Dickinson Dorm",,  42.391808, -72.520058,,,,,,
620,"MEETING HOUSE / ELMER",,  42.167397, -72.620850,,,,,,
621,"MEETING HOUSE / ELMER",,  42.167240, -72.621758,,,,,,
623,"MEMORIAL / FULLER",,  42.167400, -72.578506,,,,,,
624,"Wing Memorial Hospital",,  42.169128, -72.341049,,,,,,
6246,"MAIN / STOCKBRIDGE",,  42.100498, -72.586502,,,,,,
6248,"ORANGE / WIGWAM",,  42.092541, -72.566719,,,,,,
6249,"PLUMTREE / ABBOTT",,  42.097725, -72.532143,,,,,,
626,"PROVIDENCE HOSPITAL / PARKING LOT",,  42.165905, -72.633591,,,,,,
6281,"SPRINGFIELD / MOUNTAIN",,  42.107647, -72.703850,,,,,,
6289,"MAIN / BRIDGE",,  42.103329, -72.592270,,,,,,
629,"Memorial/Cecile",,  42.165840, -72.579437,,,,,,
6290,"Holyoke Community College",,  42.195221, -72.652969,,,,,,
63,"Morrill",,  42.391472, -72.525238,,,,,,
630,"MONTGOMERY / WILLETTE",,  42.165379, -72.583977,,,,,,
6301,"AIC Career Learning Center",,  42.151081, -72.543266,,,,,,
6302,"Page / Robbins",,  42.147823, -72.542603,,,,,,
6303,"Page / Oakdale",,  42.148270, -72.541504,,,,,,
6304,"Page / 1st",,  42.150192, -72.537064,,,,,,
6305,"Brookdale / Unnamed St",,  42.146343, -72.527252,,,,,,
6306,"Brookdale / Cottage",,  42.142597, -72.525650,,,,,,
6307,"Cottage / Carando",,  42.143856, -72.536591,,,,,,
6308,"Cottage / Industry",,  42.144169, -72.542198,,,,,,
6309,"Carew / Detroit",,  42.135551, -72.569649,,,,,,
631,"CHICOPEE / OLDFIELD",,  42.165001, -72.621262,,,,,,
6310,"Carew / Linnell",,  42.140347, -72.567650,,,,,,
6311,"Carew / Anne",,  42.141685, -72.567108,,,,,,
6312,"Carew / Davis",,  42.143539, -72.566307,,,,,,
6313,"Carew / Windemere",,  42.145039, -72.565750,,,,,,
6314,"Carew / Edendale",,  42.146946, -72.564941,,,,,,
6315,"Carew / Prentice",,  42.148243, -72.564484,,,,,,
6316,"PAGE / SAINT JAMES",,  42.137558, -72.562378,,,,,,
6317,"PAGE / SAINT JAMES",,  42.136238, -72.562065,,,,,,
6318,"PAGE / GUION",,  42.134430, -72.561623,,,,,,
6319,"PAGE / HENDEE",,  42.132778, -72.561859,,,,,,
632,"GRATTAN / COLUMBA",,  42.165279, -72.590118,,,,,,
6320,"PAGE / GLADSWORTH",,  42.131157, -72.563286,,,,,,
6321,"PAGE / SAINT JAMES",,  42.129124, -72.565544,,,,,,
6322,"SAINT JAMES / STUYVESANT",,  42.129688, -72.566757,,,,,,
6323,"SAINT JAMES / CORONA",,  42.131767, -72.566635,,,,,,
6324,"MAIN / HOLLAND",,  42.124332, -72.610077,,,,,,
634,"CHICOPEE / OLDFIELD",,  42.164825, -72.620903,,,,,,
635,"GRATTAN / NAOMI",,  42.164097, -72.588898,,,,,,
6350,"FRONT / ORCHARD",,  42.148041, -72.598869,,,,,,
6351,"FRONT / CYMAN",,  42.148003, -72.595078,,,,,,
6352,"FRONT / ACADEMY",,  42.147984, -72.591995,,,,,,
6354,"Walmart Chicopee",,  42.173069, -72.575172,,,,,,
6355,"FRONT / GROVE",,  42.152859, -72.584343,,,,,,
636,"GRATTAN / NAOMI",,  42.163956, -72.588913,,,,,,
637,"WHITNEY / UNNAMED STREET",,  42.163635, -72.640083,,,,,,
6371,"ALLEN / WACHUSETT",,  42.094116, -72.515793,,,,,,
6372,"COOLEY / UNNAMED STREET",,  42.093288, -72.499283,,,,,,
6373,"SUMNER / WASHINGTON",,  42.083851, -72.570221,,,,,,
6374,"FORT PLEASANT / WARNER",,  42.084984, -72.574219,,,,,,
6375,"MAIN / OSGOOD",,  42.112713, -72.604614,,,,,,
6376,"MAIN / BANCROFT",,  42.113754, -72.605461,,,,,,
6377,"BAY / BLUNT PARK",,  42.128880, -72.556976,,,,,,
6379,"BERKSHIRE / CHAMPLAIN",,  42.145138, -72.521362,,,,,,
638,"WHITNEY / UNNAMED STREET",,  42.163544, -72.639954,,,,,,
6380,"OAK / CATON",,  42.159039, -72.503143,,,,,,
639,"CHICOPEE / LORRAINE",,  42.163200, -72.618851,,,,,,
64,"Hasbrouck",,  42.390900, -72.525261,,,,,,
640,"Riverdale and Brightside Dr.",,  42.162140, -72.633186,,,,,,
6400,"BOSTON / LUCERNE",,  42.140591, -72.499840,,,,,,
641,"CHICOPEE / POPLAR",,  42.162086, -72.617004,,,,,,
6410,"STATE / MASON",,  42.112125, -72.562492,,,,,,
6411,"DWIGHT / TAYLOR",,  42.105911, -72.591827,,,,,,
6413,"COURT / UNNAMED STREET",,  42.120174, -72.754417,,,,,,
6414,"MAIN / CASIMIR",,  42.119068, -72.741028,,,,,,
6415,"CHERRY / MAPLE CREST",,  42.201660, -72.643692,,,,,,
6416,"HOMESTEAD / MEMORIAL",,  42.189430, -72.649734,,,,,,
642,"CHICOPEE / POPLAR",,  42.162140, -72.616898,,,,,,
6420,"WHITE / PASADENA",,  42.092846, -72.556313,,,,,,
6421,"MEMORIAL / UNION",,  42.096184, -72.607201,,,,,,
6422,"WALNUT / COOLEY",,  42.097500, -72.632233,,,,,,
644,"GRATTAN / MORRIS",,  42.161934, -72.586151,,,,,,
6440,"CHESTNUT / WAVERLY",,  42.119297, -72.604408,,,,,,
6441,"CHICOPEE / LORRAINE",,  42.163368, -72.618942,,,,,,
6444,"CHICOPEE / BAPTIST",,  42.191528, -72.601395,,,,,,
6445,"CHICOPEE / BOLDUC",,  42.190289, -72.602783,,,,,,
6446,"CHICOPEE / ADAMS",,  42.189034, -72.604477,,,,,,
6447,"CHICOPEE / PERRAULT",,  42.187225, -72.607620,,,,,,
645,"MONTGOMERY / RAMP",,  42.161526, -72.581955,,,,,,
6450,"CHICOPEE / JONES FERRY",,  42.171822, -72.623352,,,,,,
6457,"NORTHAMPTON / ELMWOOD",,  42.190891, -72.629524,,,,,,
6458,"RIVERDALE / LABELLE",,  42.151543, -72.630684,,,,,,
646,"CHICOPEE / RAMP",,  42.160858, -72.614555,,,,,,
647,"CHICOPEE / RAMP",,  42.160847, -72.614731,,,,,,
648,"MONTGOMERY / MEMORIAL",,  42.161129, -72.581795,,,,,,
65,"Chadbourne (N)",,  42.389362, -72.518860,,,,,,
650,"GRATTAN / MONTGOMERY",,  42.160988, -72.582916,,,,,,
6500,"APPLETON / PLEASANT",,  42.210701, -72.620583,,,,,,
6502,"HILLSIDE / MERKEL",,  42.198200, -72.634109,,,,,,
6504,"Chicopee High School",,  42.149311, -72.586311,,,,,,
651,"GRATTAN / MONTGOMERY",,  42.160854, -72.582726,,,,,,
653,"HIGHLAND / PROSPECT",,  42.159389, -72.634369,,,,,,
654,"HIGHLAND / PROSPECT",,  42.159298, -72.634514,,,,,,
655,"HUBBARD / MAPLE",,  42.160549, -72.483284,,,,,,
6551,"MAIN / ADAMS",,  42.196732, -72.610435,,,,,,
6552,"MAIN / JACKSON",,  42.195873, -72.611275,,,,,,
6553,"MAIN / PAPINEAU",,  42.188526, -72.623528,,,,,,
6554,"MAIN / PREW",,  42.187881, -72.624191,,,,,,
6555,"MAIN / DEAN TECH DRIVE",,  42.177788, -72.630005,,,,,,
656,"RIVERDALE / MARION",,  42.158615, -72.633202,,,,,,
657,"HUBBARD / SEWALL",,  42.160042, -72.480377,,,,,,
659,"MAIN / OAK",,  42.159668, -72.502602,,,,,,
660,"RIVERDALE / UNKNOWN",,  42.158401, -72.632881,,,,,,
661,"MAIN / PINEVALE",,  42.159504, -72.500900,,,,,,
662,"MAIN / PINEVALE",,  42.159409, -72.500946,,,,,,
663,"MAIN / GROVE",,  42.158543, -72.584694,,,,,,
6633,"Court St. (Chicopee Falls)",,  42.156990, -72.583977,,,,,,
664,"MAIN / CANTERBURY",,  42.158550, -72.580589,,,,,,
665,"MAIN / CEDAR",,  42.159313, -72.498756,,,,,,
666,"Court House Plaza",,  42.158451, -72.584610,,,,,,
667,"MAIN / CANTERBURY",,  42.158459, -72.580566,,,,,,
668,"MAIN / CEDAR",,  42.159184, -72.498466,,,,,,
669,"OAK / WORCESTER",,  42.159084, -72.503296,,,,,,
670,"MAIN / LYONS",,  42.159184, -72.496956,,,,,,
671,"HUBBARD / EAST",,  42.159073, -72.475769,,,,,,
672,"WINSOR / SEWALL",,  42.158955, -72.479950,,,,,,
673,"BELCHER / MAPLE",,  42.157932, -72.580330,,,,,,
674,"MAIN / MONTGOMERY",,  42.158661, -72.494629,,,,,,
675,"MAIN / LYONS",,  42.158531, -72.494606,,,,,,
676,"STATE HWY 116 / SITARZ",,  42.157249, -72.612221,,,,,,
677,"CENTER / PARK",,  42.158108, -72.484550,,,,,,
678,"MAIN / ROGERS",,  42.157776, -72.491348,,,,,,
679,"GROVE / COURT",,  42.157024, -72.585236,,,,,,
68,"Butterfield Dorm (W)",,  42.388897, -72.517593,,,,,,
680,"MAIN / INDIAN LEAP",,  42.157825, -72.491936,,,,,,
6801,"MAIN / MEADOW",,  42.189827, -72.620636,,,,,,
6802,"ELM / HARVARD",,  42.135048, -72.739983,,,,,,
6803,"ELM / ARCH",,  42.139389, -72.735397,,,,,,
6808,"WHITE / DAWSON",,  42.091774, -72.555008,,,,,,
681,"GROVE / COURT",,  42.156948, -72.585144,,,,,,
6810,"N.E.A.R.I. School (Flag Stop)",,  42.204449, -72.595291,,,,,,
682,"OLD CHICOPEE / STATE HWY 116",,  42.157387, -72.612045,,,,,,
683,"BERKSHIRE / CHESTNUT",,  42.157207, -72.508125,,,,,,
684,"BERKSHIRE / CHESTNUT",,  42.157143, -72.508789,,,,,,
685,"BERKSHIRE / MYRTLE",,  42.157021, -72.506378,,,,,,
686,"BERKSHIRE / MYRTLE",,  42.156975, -72.506310,,,,,,
687,"BROADWAY / RAMP",,  42.156155, -72.580887,,,,,,
688,"MAIN / ROGERS",,  42.156979, -72.489799,,,,,,
689,"BERKSHIRE / OAK",,  42.156826, -72.503990,,,,,,
690,"Palmer Library",,  42.167442, -72.338692,,,,,,
691,"MAIN / ROGERS",,  42.156898, -72.489922,,,,,,
6910,"WORTHINGTON / FEDERAL",,  42.112560, -72.580269,,,,,,
692,"BROADWAY / PAINE",,  42.156067, -72.580727,,,,,,
693,"BERKSHIRE / OAK",,  42.156742, -72.504013,,,,,,
694,"BERKSHIRE / HOLLY",,  42.156578, -72.511070,,,,,,
695,"SEWALL / EAST",,  42.156822, -72.481255,,,,,,
696,"BERKSHIRE / BERKSHIRE",,  42.156311, -72.511086,,,,,,
697,"GROVE / OAK",,  42.155373, -72.585472,,,,,,
698,"MAIN / BANNER",,  42.156048, -72.488029,,,,,,
699,"MAIN / BANNER",,  42.155983, -72.488174,,,,,,
7,"Pioneer Vally Apts.",,  42.459343, -72.578453,,,,,,
700,"Palmer Senior Center",,  42.156857, -72.327385,,,,,,
701,"BERKSHIRE / UNNAMED STREET",,  42.155022, -72.512268,,,,,,
702,"BROADWAY / SUMMER",,  42.154129, -72.580498,,,,,,
703,"GROVE / FRONT",,  42.153969, -72.584602,,,,,,
704,"BERKSHIRE / FIBERLOID",,  42.154488, -72.512993,,,,,,
705,"RIVERDALE / ALTHEA",,  42.152794, -72.630997,,,,,,
706,"BROADWAY / PINE",,  42.153316, -72.580521,,,,,,
707,"RIVERDALE / ALTHEA",,  42.152622, -72.630707,,,,,,
708,"BERKSHIRE / FIBERLOID",,  42.155060, -72.512268,,,,,,
709,"BROADWAY / PINE",,  42.152824, -72.580353,,,,,,
71,"Fine Arts Center",,  42.387821, -72.523911,,,,,,
710,"NORTH EAST UTLITY DRIVE / NORTH EAST UTL",,  42.152187, -72.547981,,,,,,
711,"RIVERDALE / LABELLE",,  42.151337, -72.630463,,,,,,
712,"GOODWIN / LILAC",,  42.151863, -72.506302,,,,,,
713,"LILAC / GOODWIN",,  42.151814, -72.506264,,,,,,
714,"Front/Ellerton(opposite)",,  42.150696, -72.585411,,,,,,
715,"FRONT / ELLERTON",,  42.150608, -72.585327,,,,,,
716,"BERKSHIRE / DUTTON",,  42.150898, -72.516060,,,,,,
717,"CADWELL / UNNAMED STREET",,  42.150482, -72.544495,,,,,,
718,"GOODWIN / DARLING",,  42.150635, -72.507904,,,,,,
719,"GOODWIN / DARLING",,  42.150383, -72.508118,,,,,,
72,"Studio Arts Building",,  42.387646, -72.523499,,,,,,
720,"BROADWAY / MADISON",,  42.149849, -72.580116,,,,,,
721,"BOSTON / BRAINARD",,  42.150795, -72.459068,,,,,,
722,"BERKSHIRE / US HWY 20",,  42.150040, -72.517075,,,,,,
723,"MAIN / MAPLE",,  42.150757, -72.426476,,,,,,
724,"MAIN / MAPLE",,  42.150711, -72.426353,,,,,,
725,"BROADWAY / MONROE",,  42.149181, -72.579842,,,,,,
726,"Front/Wheatland(opposite)",,  42.149040, -72.587463,,,,,,
727,"Front/Springfield",,  42.148846, -72.606865,,,,,,
728,"GOODWIN / LAYZON BROTHERS",,  42.149746, -72.508560,,,,,,
729,"RIVERDALE / HAYES",,  42.148479, -72.630730,,,,,,
73,"Haigis Mall",,  42.387142, -72.526398,,,,,,
730,"BERKSHIRE / SENECA",,  42.149334, -72.517509,,,,,,
731,"Chicopee Center",,  42.148426, -72.608879,,,,,,
732,"RIVERDALE / HAYES",,  42.148132, -72.630424,,,,,,
733,"FRONT / GRAPE",,  42.148205, -72.603462,,,,,,
734,"FRONT / QUARRY",,  42.148148, -72.600212,,,,,,
735,"Front/Orchard(opposite)",,  42.148129, -72.598648,,,,,,
736,"BERKSHIRE / OGDEN",,  42.148808, -72.518204,,,,,,
737,"Center St. and Exchange",,  42.148289, -72.606918,,,,,,
738,"Front/Cyman",,  42.148083, -72.594780,,,,,,
739,"Front/Academy(opposite)",,  42.148064, -72.591881,,,,,,
740,"MAIN / NOKOMIS",,  42.149406, -72.427078,,,,,,
742,"BOSTON / STONY HILL",,  42.148811, -72.477661,,,,,,
743,"CADWELL / WATLING",,  42.148006, -72.544075,,,,,,
745,"BOSTON / POST OFFICE",,  42.148548, -72.441223,,,,,,
746,"CENTER / SCHOOL",,  42.146828, -72.607246,,,,,,
747,"SPRINGFIELD / PEARL",,  42.146481, -72.605034,,,,,,
748,"BROADWAY / THEODORE",,  42.146984, -72.579651,,,,,,
749,"BROADWAY / THEODORE",,  42.146957, -72.579788,,,,,,
75,"Visitors Center",,  42.385647, -72.523880,,,,,,
750,"BERKSHIRE / LORIMER",,  42.147423, -72.519241,,,,,,
751,"RIVERDALE / US HWY 5",,  42.146481, -72.629692,,,,,,
752,"SPRINGFIELD / HOWARD",,  42.146477, -72.605171,,,,,,
753,"BERKSHIRE / SUPERIOR",,  42.147057, -72.519806,,,,,,
755,"BOSTON / DUDLEY",,  42.146809, -72.481552,,,,,,
756,"CABOT / PARK",,  42.145618, -72.608894,,,,,,
757,"BERKSHIRE / MICHIGAN",,  42.146248, -72.520325,,,,,,
759,"RIVERDALE / US HWY 5",,  42.145184, -72.629181,,,,,,
760,"BOSTON / HATCH",,  42.146477, -72.482300,,,,,,
761,"Center/Union",,  42.144848, -72.608818,,,,,,
763,"ROBBINS / BALDARELLI",,  42.144852, -72.543343,,,,,,
764,"BOSTON / BIDDLE",,  42.145420, -72.484261,,,,,,
765,"BERKSHIRE / CHAMPLAIN",,  42.145180, -72.521545,,,,,,
766,"SPRINGFIELD / SOUTH",,  42.144451, -72.603409,,,,,,
767,"ROBBINS / BALDARELLI",,  42.146702, -72.543762,,,,,,
768,"SPRINGFIELD / CHAPIN",,  42.144283, -72.603477,,,,,,
77,"WFCR",,  42.384953, -72.528282,,,,,,
770,"RIVERDALE / WAYSIDE",,  42.143757, -72.628517,,,,,,
771,"RIVERDALE / US HWY 5",,  42.143509, -72.628151,,,,,,
773,"CENTER / SOUTH",,  42.143627, -72.610115,,,,,,
774,"COTTAGE / ROBBINS",,  42.144199, -72.544533,,,,,,
775,"BROADWAY / WESTERN",,  42.143665, -72.580376,,,,,,
776,"BROADWAY / WESTERN",,  42.143654, -72.580498,,,,,,
777,"COTTAGE / TURNBULL",,  42.143978, -72.540443,,,,,,
778,"Industry/Cottage (1)",,  42.143620, -72.543625,,,,,,
779,"SPRINGFIELD / GAYLORD",,  42.143261, -72.602982,,,,,,
78,"Southwest Shelter",,  42.384686, -72.528419,,,,,,
780,"STONY HILL / UNNAMED STREET",,  42.144238, -72.473457,,,,,,
781,"Center/Hampden",,  42.143063, -72.610512,,,,,,
782,"STONY HILL / UNNAMED STREET",,  42.144047, -72.473206,,,,,,
783,"COTTAGE / PROGRESS",,  42.143398, -72.534698,,,,,,
784,"Cottage/Progress(opposite)",,  42.143330, -72.533974,,,,,,
786,"PAGE / SARGON",,  42.143044, -72.554024,,,,,,
788,"Page/Sargon (opposite)",,  42.142876, -72.554062,,,,,,
789,"SPRINGFIELD / STEARNS",,  42.142406, -72.602707,,,,,,
79,"Chestnut Street (N)",,  42.383675, -72.518478,,,,,,
790,"BROADWAY / WILLIAM",,  42.142162, -72.580963,,,,,,
791,"BERKSHIRE / BABBIN",,  42.142429, -72.523598,,,,,,
792,"East and Page",,  42.142101, -72.555847,,,,,,
794,"Page/Prentice(opposite)",,  42.142052, -72.555641,,,,,,
795,"Industry/Cottage (2)",,  42.142052, -72.543434,,,,,,
796,"BERKSHIRE / COTTAGE",,  42.141911, -72.523621,,,,,,
797,"Boston Rd. Opposite Eastfield Mall",,  42.142033, -72.491852,,,,,,
798,"BROADWAY / ABBEY MEMORIAL",,  42.140945, -72.581467,,,,,,
799,"SPRINGFIELD / CASINO",,  42.140739, -72.602341,,,,,,
8,"Goten Restaurant",,  42.458321, -72.572556,,,,,,
800,"PAGE / STEVENS",,  42.141548, -72.556618,,,,,,
8000,"Hall Drive",,  42.357929, -72.484245,,,,,,
8002,"Old Belchertown Road 2",,  42.354706, -72.480110,,,,,,
8005,"Garage Road (In)",,  42.465275, -72.575951,,,,,,
8006,"Sunderland Center",,  42.464993, -72.580261,,,,,,
8008,"Sand Hill Road",,  42.412655, -72.514381,,,,,,
8009,"Sunderland Center (S. Deerfield bound)",,  42.465000, -72.580154,,,,,,
801,"Eastfield Mall (Flag Stop)",,  42.141808, -72.491371,,,,,,
8010,"Mill Street (Out)",,  42.354973, -72.520813,,,,,,
8011,"Columbia Drive (Out)",,  42.353821, -72.522400,,,,,,
802,"PAGE / OSBORNE",,  42.141121, -72.557709,,,,,,
8024,"Pulpit Hill Road 1",,  42.417404, -72.523819,,,,,,
8025,"Pulpit Hill Road 2",,  42.417179, -72.526733,,,,,,
803,"INDUSTRY / MEMORIAL",,  42.141117, -72.542877,,,,,,
804,"STONY HILL / SUNNYSIDE",,  42.141720, -72.471642,,,,,,
805,"SPRINGFIELD / HENRY HARRIS",,  42.140442, -72.602135,,,,,,
806,"Eastfield Mall 3",,  42.141029, -72.485039,,,,,,
809,"MAIN / FOX HILL",,  42.141453, -72.427780,,,,,,
81,"Fearing Street (In)",,  42.383041, -72.520485,,,,,,
811,"BOSTON / LUCERNE",,  42.140720, -72.499924,,,,,,
812,"Page/Windemere",,  42.140091, -72.559715,,,,,,
814,"SPRINGFIELD / LEMUEL",,  42.139671, -72.601921,,,,,,
815,"STONY HILL / PRIMROSE",,  42.140648, -72.470779,,,,,,
816,"STONY HILL / PRIMROSE",,  42.140617, -72.470840,,,,,,
817,"PAGE / FRESNO",,  42.139896, -72.559799,,,,,,
818,"SPRINGFIELD / MARION",,  42.139374, -72.601952,,,,,,
819,"RIVERDALE / ASHLEY",,  42.138889, -72.626419,,,,,,
82,"Fearing Street (Out)",,  42.382877, -72.520561,,,,,,
820,"SAINT JAMES / FERNWOLD",,  42.139587, -72.571571,,,,,,
821,"FERNBANK / FLINT",,  42.140179, -72.491600,,,,,,
822,"FERNBANK / FLINT",,  42.140171, -72.491852,,,,,,
823,"BOSTON / FIELDSTON",,  42.140041, -72.503304,,,,,,
824,"Eastfield Mall (Flag Stop)",,  42.139763, -72.486862,,,,,,
825,"BOSTON / TEMBY",,  42.139614, -72.505508,,,,,,
826,"BERKSHIRE / HARVEY",,  42.139458, -72.524979,,,,,,
827,"RIVERDALE / ASHLEY",,  42.138351, -72.625916,,,,,,
828,"BERKSHIRE / HARVEY",,  42.139355, -72.525345,,,,,,
829,"Boston Rd Mobile Home Park",,  42.139503, -72.505295,,,,,,
830,"LIBERTY / UNNAMED STREET",,  42.138760, -72.582893,,,,,,
831,"FERNBANK / BULAT",,  42.139534, -72.489288,,,,,,
832,"Page/Haumont",,  42.138828, -72.562157,,,,,,
833,"UNNAMED STREET / SAINT JAMES",,  42.138683, -72.570999,,,,,,
834,"STONY HILL / HICKORY HILL",,  42.139488, -72.469994,,,,,,
835,"PAGE / SAINT JAMES",,  42.138622, -72.562271,,,,,,
837,"Boston Rd CVS",,  42.139030, -72.518478,,,,,,
838,"PARKER / FREDERIC",,  42.139084, -72.495995,,,,,,
839,"FERNBANK / BULAT",,  42.139027, -72.487022,,,,,,
840,"Five Mile Pond Park",,  42.138840, -72.509773,,,,,,
841,"BOSTON / SHUMWAY",,  42.138660, -72.508972,,,,,,
842,"SPRINGFIELD PLAZA DRIVE / PARKING LOT",,  42.137932, -72.579041,,,,,,
843,"MEMORIAL / INDUSTRY",,  42.138248, -72.544144,,,,,,
844,"SPRINGFIELD / FRANKLIN",,  42.137745, -72.601410,,,,,,
845,"SPRINGFIELD / FRANKLIN",,  42.137711, -72.601501,,,,,,
846,"Center/Rt 91",,  42.137478, -72.612717,,,,,,
847,"PARKER / ELLERY",,  42.138447, -72.495827,,,,,,
848,"Stop and Shop",,  42.137577, -72.581779,,,,,,
849,"Center/Rt. 91",,  42.137276, -72.612892,,,,,,
85,"Triangle Street (N)",,  42.381779, -72.519363,,,,,,
850,"Memorial Industrial Park",,  42.137474, -72.546494,,,,,,
851,"Boston/Lloyd",,  42.137867, -72.513107,,,,,,
852,"Boston/Brandon",,  42.137775, -72.514473,,,,,,
854,"Saint James/Georgetown",,  42.137493, -72.564461,,,,,,
855,"BOSTON / WALLACE",,  42.137501, -72.515091,,,,,,
856,"Saint James/Holy Cross(opposite)",,  42.136936, -72.565781,,,,,,
857,"SAINT JAMES / CAREW",,  42.136852, -72.569633,,,,,,
858,"BOSTON / GLENWOOD",,  42.137196, -72.517578,,,,,,
859,"BERKSHIRE / DEWEY",,  42.137085, -72.527702,,,,,,
86,"Southwest/University Drive (S)",,  42.381737, -72.531837,,,,,,
860,"BOSTON / GLENWOOD",,  42.137196, -72.516724,,,,,,
861,"BERKSHIRE / ELIZABETH",,  42.136993, -72.528069,,,,,,
862,"STONY HILL / FERNWOOD",,  42.137516, -72.467667,,,,,,
863,"SAINT JAMES / HOLY CROSS",,  42.136654, -72.566063,,,,,,
864,"MAIN / DELMORE",,  42.137337, -72.429588,,,,,,
866,"Springfield Walmart",,  42.136555, -72.506889,,,,,,
867,"BERKSHIRE / ELIZABETH",,  42.136051, -72.529160,,,,,,
869,"BOSTON / LAWNWOOD",,  42.135811, -72.522751,,,,,,
87,"Southwest/University Drive (N)",,  42.381779, -72.531731,,,,,,
870,"SPRINGFIELD / ATWATER",,  42.135178, -72.600800,,,,,,
871,"BOSTON / LAWNWOOD",,  42.135853, -72.522278,,,,,,
872,"SAINT JAMES / ST JAMES",,  42.135410, -72.568741,,,,,,
873,"SPRINGFIELD / MELLEN",,  42.135128, -72.600716,,,,,,
874,"BERKSHIRE / ELIZABETH",,  42.135513, -72.530075,,,,,,
875,"BERKSHIRE / RUSH",,  42.135635, -72.529602,,,,,,
876,"PARKER / GRAYSON",,  42.135624, -72.495911,,,,,,
877,"DIPPING HOLE / BLACKSMITH",,  42.135918, -72.474266,,,,,,
878,"DIPPING HOLE / MELIKIAN",,  42.135929, -72.472038,,,,,,
879,"SAINT JAMES / ST JAMES",,  42.135025, -72.569176,,,,,,
880,"DIPPING HOLE / STONY HILL",,  42.135906, -72.466278,,,,,,
881,"RIVERDALE / PVT",,  42.134323, -72.625923,,,,,,
882,"DIPPING HOLE / STONY HILL",,  42.135769, -72.466240,,,,,,
883,"BERKSHIRE / ELIZABETH",,  42.135132, -72.530396,,,,,,
885,"Carew/Shaine",,  42.134258, -72.570885,,,,,,
886,"BOSTON / ARNOLD",,  42.134548, -72.524261,,,,,,
8860,"Price Rite Boston Rd.",,  42.134499, -72.522644,,,,,,
887,"BOSTON / STUART",,  42.134098, -72.525017,,,,,,
888,"SPRINGFIELD / DAVENPORT",,  42.133610, -72.600464,,,,,,
889,"PARKER / HERMITAGE",,  42.134453, -72.495720,,,,,,
890,"CAREW / SHERBROOKE",,  42.133774, -72.571129,,,,,,
891,"RIVERDALE / US HWY 5",,  42.132904, -72.625740,,,,,,
892,"Liberty/Lynwood",,  42.133259, -72.584755,,,,,,
893,"SPRINGFIELD / DAVENPORT",,  42.133068, -72.600243,,,,,,
894,"PARKER / OVERLEA",,  42.133846, -72.495872,,,,,,
895,"SAINT JAMES / SAN MIGUEL",,  42.133282, -72.567032,,,,,,
896,"BERKSHIRE / EGAN",,  42.133427, -72.533142,,,,,,
897,"Westfield State University",,  42.130718, -72.796654,,,,,,
898,"Center St. (opposite 628)",,  42.132740, -72.613068,,,,,,
899,"Center/Health clinic",,  42.132492, -72.613182,,,,,,
9,"Sugarloaf Estates",,  42.457664, -72.581467,,,,,,
9000,"Canon Circle #2",,  42.086006, -72.508148,,,,,,
9002,"Liberty and Main #2",,  42.105095, -72.597130,,,,,,
9005,"SAAB Court",,  42.111374, -72.592842,,,,,,
9006,"Sumner / Lenox",,  42.085960, -72.558739,,,,,,
9007,"Corticelli/ Pine OB",,  42.331215, -72.676529,,,,,,
9008,"Ryan/ Spring OB",,  42.329895, -72.678619,,,,,,
901,"BERKSHIRE / HARDING",,  42.133652, -72.532570,,,,,,
9011,"Brassworks IB",,  42.376766, -72.705956,,,,,,
9012,"54 Industrial Drive",,  42.333683, -72.629501,,,,,,
9013,"Liberty St. Gas Station",,  42.104908, -72.597351,,,,,,
9014,"Main/Federal",,  42.107670, -72.577835,,,,,,
9019,"138 East Mountain Rd",,  42.112408, -72.701416,,,,,,
902,"Carew/Upland",,  42.132614, -72.573189,,,,,,
9022,"Boland Way",,  42.102081, -72.591270,,,,,,
903,"BAY / HOOD",,  42.132740, -72.541862,,,,,,
904,"BAY / HOOD",,  42.132626, -72.542336,,,,,,
9040,"Harrison  St. Outbound",,  42.102921, -72.589653,,,,,,
9048,"Longmeadow/Springfield City Line Dwight St",,  42.063896, -72.539345,,,,,,
905,"BAY / BAY PATH",,  42.132603, -72.543610,,,,,,
9050,"Amity Place (In)",,  42.373955, -72.531670,,,,,,
9051,"Lincoln Avenue (In)",,  42.375584, -72.523911,,,,,,
9052,"Jones Library (In)",,  42.375771, -72.521782,,,,,,
9053,"Summer Street (In)",,  42.414101, -72.528435,,,,,,
906,"CAREW / UPLAND",,  42.132332, -72.573387,,,,,,
9063,"Ware Post Office",,  42.254978, -72.253693,,,,,,
9064,"Big Y  Phillips Plaza  Ware",,  42.254757, -72.252571,,,,,,
9065,"CVS  Ware",,  42.257236, -72.248291,,,,,,
9066,"Upper North Main St  Ware",,  42.274075, -72.242264,,,,,,
9068,"East and Page Courtesy Stop",,  42.143227, -72.555702,,,,,,
9069,"Feeding Hill Center (FLAG STOP-Signal Driver)",,  42.068386, -72.678757,,,,,,
907,"LIBERTY / EDGAR",,  42.132198, -72.584595,,,,,,
9071,"Hendrick and Plain (this is a FLAG stop)",,  42.241211, -72.662247,,,,,,
9072,"Plain and Strong (this is a FLAG stop)",,  42.238682, -72.681038,,,,,,
9073,"Robinson State Park (FLAG STOP-Signal Driver)",,  42.080410, -72.667046,,,,,,
9074,"Park and Bryan (this is a FLAG stop)",,  42.259521, -72.678490,,,,,,
9075,"Main and Wright (this is a FLAG stop)",,  42.263042, -72.681770,,,,,,
9077,"Thorndike Post Office",,  42.190941, -72.331604,,,,,,
9078,"Town Lodging House",,  42.278999, -72.698105,,,,,,
9079,"CVS  Belchertown",,  42.288654, -72.406998,,,,,,
908,"BAY / HASKIN",,  42.132557, -72.540474,,,,,,
9086,"HTC Gate 7",,  42.208515, -72.607498,,,,,,
9087,"HTC Gate 6",,  42.208450, -72.607643,,,,,,
9088,"HTC Gate 5",,  42.208252, -72.607849,,,,,,
9089,"HTC Gate 4",,  42.208092, -72.608009,,,,,,
909,"CLORAN / BAY",,  42.132431, -72.544655,,,,,,
9095,"Hampshire County House of Corrections",,  42.307316, -72.658577,,,,,,
9096,"HTC Gate 3",,  42.207916, -72.608177,,,,,,
9097,"HTC Gate 2",,  42.207745, -72.608322,,,,,,
9098,"HTC Gate 1",,  42.207664, -72.608391,,,,,,
910,"BAY / HASKIN",,  42.132450, -72.540154,,,,,,
9104,"Granby Center PM",,  42.256695, -72.516640,,,,,,
9107,"Stony Hill and Tinkham Road",,  42.103104, -72.459068,,,,,,
911,"PARKER / SONIA",,  42.132694, -72.495850,,,,,,
912,"SAINT JAMES / CORONA",,  42.132008, -72.566772,,,,,,
913,"South Lot  WSU",,  42.129410, -72.802711,,,,,,
9130,"Williams/Longmeadow (Flag stop - signal driver)",,  42.050579, -72.582764,,,,,,
914,"UNION / MORGAN",,  42.129539, -72.732185,,,,,,
9140,"Commerce High School (opposite)",,  42.106869, -72.578941,,,,,,
9141,"Central High School",,  42.130886, -72.547646,,,,,,
9142,"Central High School (Roosevelt St.)",,  42.131008, -72.545982,,,,,,
9143,"Main and Walter",,  42.122570, -72.609581,,,,,,
9145,"Walter and Main(Inbound)",,  42.122452, -72.609489,,,,,,
915,"CAREW / PIEDMONT",,  42.131645, -72.574699,,,,,,
9150,"State and Benton",,  42.116318, -72.549461,,,,,,
9151,"Putnam High School(Blunt Park Rd.)",,  42.119038, -72.548012,,,,,,
916,"SPRINGFIELD / ATWATER",,  42.131401, -72.600327,,,,,,
9160,"Crafts Ave/ Peter Pan",,  42.316715, -72.631599,,,,,,
9161,"Look Park OB",,  42.344147, -72.681961,,,,,,
917,"BAY / UNNAMED STREET",,  42.131714, -72.549469,,,,,,
918,"SPRINGFIELD / ATWATER",,  42.131195, -72.600227,,,,,,
919,"UNION / UNNAMED STREET",,  42.129807, -72.732430,,,,,,
9190,"Scanlon Hall",,  42.130516, -72.796059,,,,,,
9191,"MCDI",,  42.108650, -72.560516,,,,,,
920,"Carew/Savoy",,  42.131516, -72.574669,,,,,,
9201,"Chicopee Marketplace",,  42.174763, -72.575317,,,,,,
9205,"Main St. Across from SBT",,  42.105545, -72.596115,,,,,,
921,"PARKER / RAVENWOOD",,  42.132061, -72.495697,,,,,,
922,"BAY / UNNAMED STREET",,  42.131535, -72.550575,,,,,,
924,"BAY / JASPER",,  42.131641, -72.537277,,,,,,
925,"BAY / JASPER",,  42.131550, -72.537247,,,,,,
9250,"Dwight and Converse",,  42.059818, -72.537643,,,,,,
9251,"Converse and Dwight",,  42.059601, -72.538742,,,,,,
926,"Riverdale shops 2",,  42.130470, -72.622787,,,,,,
927,"Center/Plainfield(opposite)",,  42.130390, -72.612648,,,,,,
929,"WESTERN / WESTWOOD",,  42.128670, -72.792274,,,,,,
9292,"Gus and Paul's(Sumner)",,  42.091026, -72.532692,,,,,,
93,"Pray Street (Out)",,  42.379574, -72.519714,,,,,,
930,"Riverdale Shops 1",,  42.130711, -72.624161,,,,,,
931,"Robinson Gardens",,  42.131184, -72.534630,,,,,,
9310,"State and Main(Tripper Timepoint)",,  42.101116, -72.586731,,,,,,
9311,"Springfield Library",,  42.102680, -72.584946,,,,,,
9312,"Carew and Main(Tripper Timepoint)",,  42.109810, -72.601089,,,,,,
9313,"St. James and Tapley(Tripper Timepoint)",,  42.125095, -72.566727,,,,,,
9314,"Carew and Armory(Tripper Timepoint)",,  42.121887, -72.588661,,,,,,
9315,"Armory and Carew(Tripper Timepoint)",,  42.121975, -72.588470,,,,,,
9316,"Court Square  Main and State",,  42.101494, -72.588264,,,,,,
9317,"State and Chestnut(Tripper Timepoint)",,  42.102631, -72.584999,,,,,,
9318,"State and Dwight",,  42.102062, -72.585907,,,,,,
9319,"Dwight and Carew(Tripper Timepoint)",,  42.112041, -72.599556,,,,,,
932,"CENTER / PLAINFIELD",,  42.130753, -72.612968,,,,,,
9320,"State and St. James(Tripper Timepoint)",,  42.109619, -72.573418,,,,,,
9323,"Carew and Main(Tripper Timepoint)",,  42.111423, -72.599854,,,,,,
9324,"Carew and Chestnut",,  42.113651, -72.596848,,,,,,
9326,"State and Dwight(Tripper Timepoint)",,  42.102158, -72.585747,,,,,,
9328,"Tapley and St. James(Tripper Timepoint)",,  42.125248, -72.567169,,,,,,
933,"UNION / PUMPKIN",,  42.129002, -72.731415,,,,,,
934,"BERKSHIRE / BAY",,  42.131107, -72.534485,,,,,,
936,"CAREW / SUZANNE",,  42.130627, -72.576546,,,,,,
937,"333 Western Ave",,  42.128395, -72.784607,,,,,,
938,"BOSTON / MORTON",,  42.130917, -72.526688,,,,,,
939,"UNION / SPRINGDALE",,  42.128880, -72.731064,,,,,,
94,"Pray Street (In)",,  42.379749, -72.519508,,,,,,
940,"BOSTON / MORTON",,  42.130833, -72.527039,,,,,,
941,"CAREW / EDDY",,  42.130405, -72.576729,,,,,,
942,"BAY / BLUNT PARK",,  42.130245, -72.555206,,,,,,
943,"Western / Overlook",,  42.127357, -72.788391,,,,,,
944,"BAY / BLUNT PARK",,  42.129944, -72.555489,,,,,,
946,"PARKER / SUNNYBROOK",,  42.129974, -72.495804,,,,,,
947,"LIBERTY / ROY",,  42.129230, -72.584496,,,,,,
948,"Carew/Judson",,  42.129208, -72.579224,,,,,,
949,"RIVERDALE / PARKING LOT",,  42.129036, -72.626419,,,,,,
95,"Cowles Lane",,  42.377876, -72.520004,,,,,,
950,"CAREW / MIDDLE",,  42.128994, -72.579338,,,,,,
951,"BEACON / DRIVEWAY",,  42.131397, -72.504295,,,,,,
953,"RIVERDALE / PIERCE",,  42.128193, -72.626846,,,,,,
954,"BAY / BLUNT PARK",,  42.128075, -72.557762,,,,,,
955,"SPRINGFIELD / SHEFFORD",,  42.128395, -72.600525,,,,,,
9550,"Northampton and River Street(Holyoke Tripper)",,  42.227688, -72.628960,,,,,,
9551,"Northampton and River Ter(Afternoon)",,  42.227562, -72.628830,,,,,,
956,"BOSTON / PHELAND",,  42.128899, -72.529411,,,,,,
957,"SPRINGFIELD / SHEFFORD",,  42.128143, -72.600426,,,,,,
958,"CAREW / NOTTINGHAM",,  42.128136, -72.580833,,,,,,
96,"Amherst Post Office",,  42.377796, -72.519836,,,,,,
960,"LIBERTY / LANGDON",,  42.127785, -72.584541,,,,,,
961,"Boston/Seymour",,  42.128181, -72.530045,,,,,,
962,"BOSTON / WILTON",,  42.127670, -72.530891,,,,,,
964,"PARKER / PATRICIA",,  42.127758, -72.496201,,,,,,
965,"Main/Main",,  42.127628, -72.611458,,,,,,
966,"PARKER / PATRICIA",,  42.127548, -72.496109,,,,,,
967,"3550 Main St",,  42.126369, -72.611084,,,,,,
968,"CAREW / LIBERTY",,  42.126602, -72.583015,,,,,,
969,"BOSTON / BARBER",,  42.127071, -72.531448,,,,,,
970,"SPRINGFIELD / CASELAND",,  42.126282, -72.601105,,,,,,
971,"MAIN / BULKLEY",,  42.127731, -72.431511,,,,,,
972,"CAREW / FREEMAN",,  42.126377, -72.583084,,,,,,
973,"SPRINGFIELD / CUNNINGHAM",,  42.126057, -72.601212,,,,,,
974,"BOSTON / DENVER",,  42.126316, -72.532669,,,,,,
975,"BOSTON / DENVER",,  42.126205, -72.533195,,,,,,
976,"LIBERTY / CAREW",,  42.125759, -72.584351,,,,,,
977,"BAY / BAYWOOD",,  42.125950, -72.558838,,,,,,
978,"3550 Main Street",,  42.125443, -72.610703,,,,,,
979,"Baystate Parking Lot N",,  42.125423, -72.610527,,,,,,
980,"CAREW / LIBERTY",,  42.125629, -72.584137,,,,,,
981,"BAY / BAYWOOD",,  42.125675, -72.558899,,,,,,
982,"BOSTON / COLEMAN",,  42.125603, -72.534126,,,,,,
983,"WESTERN / BIRCH",,  42.123299, -72.776527,,,,,,
984,"CAREW / LIBCAR",,  42.125046, -72.584648,,,,,,
985,"LIBERTY / CAREW",,  42.124840, -72.584419,,,,,,
986,"CAREW / PENACOOK",,  42.124786, -72.585152,,,,,,
989,"BOSTON / PRESTON",,  42.125156, -72.535950,,,,,,
99,"Thayer Street (Out)",,  42.376366, -72.486320,,,,,,
990,"BOSTON / AMBROSE",,  42.125038, -72.535912,,,,,,
9901,"Thayer Street (In)",,  42.376438, -72.486565,,,,,,
9904,"Lonczak and Padgette",,  42.181072, -72.553886,,,,,,
991,"PARKER / NASSAU",,  42.125244, -72.496758,,,,,,
992,"ELM / RAMP",,  42.123966, -72.626694,,,,,,
993,"WESTERN / HIGHLAND",,  42.119598, -72.765259,,,,,,
994,"3350 Main St",,  42.124016, -72.610092,,,,,,
995,"BOSTON / AMBROSE",,  42.124607, -72.538208,,,,,,
996,"PARKER / GARY",,  42.124897, -72.497009,,,,,,
997,"BAY / GOLDENROD",,  42.124485, -72.559517,,,,,,
998,"ELM / DINGLE",,  42.123207, -72.627083,,,,,,
999,"BOSTON / AMBROSE",,  42.124493, -72.538200,,,,,,
9999,"North Amherst-Rt 63 (Out)",,  42.411125, -72.530556,,,,,,
